[{"name":"上海福华医院","name_format":"上海福华医院","lat":31.039953,"lng":121.746705,"address":"惠南镇城南路98号(近衡山度假村)","telephone":"021-51961999","adcode":"310115","province":"上海市","city":"上海市","district":"浦东新区","key_person":"?","company":"?"},{"name":"上海西郊骨科医院","name_format":"上海西郊骨科医院","lat":31.207684,"lng":121.368794,"address":"剑河路595号","telephone":"021-32513263#021-52208866","adcode":"310105","province":"上海市","city":"上海市","district":"长宁区","key_person":"?","company":"?"},{"name":"上海远大心胸医院","name_format":"上海远大心胸医院","lat":31.169576,"lng":121.442363,"address":"龙漕路218号","telephone":"021-64829999#4007206999","adcode":"310104","province":"上海市","city":"上海市","district":"徐汇区","key_person":"?","company":"?"},{"name":"上海城市女子医院","name_format":"上海女子医院","lat":31.159103,"lng":121.4982,"address":"上南路3288号","telephone":"021-60515996","adcode":"310115","province":"上海市","city":"上海市","district":"浦东新区","key_person":"?","company":"?"},{"name":"上海青城医院","name_format":"上海青城医院","lat":31.159966,"lng":121.115297,"address":"盈港路468号(世纪华联斜对面)","telephone":"021-69725010#021-66371899","adcode":"310118","province":"上海市","city":"上海市","district":"青浦区","key_person":"?","company":"?"},{"name":"上海中亚医院","name_format":"上海中亚医院(嘉丰路)","lat":31.373091,"lng":121.235214,"address":"沪宜公路3888号","telephone":"021-59525020#4006675021#15000567972","adcode":"310114","province":"上海市","city":"上海市","district":"嘉定区","key_person":"?","company":"?"},{"name":"上海长江医院","name_format":"上海长江医院","lat":31.256257,"lng":121.498543,"address":"周家嘴路515号","telephone":"021-65022556","adcode":"310109","province":"上海市","city":"上海市","district":"虹口区","key_person":"?","company":"?"},{"name":"上海天大医疗美容医院","name_format":"上海天大医疗美容医院","lat":31.216069,"lng":121.41164,"address":"中山西路339号","telephone":"021-64080808","adcode":"310105","province":"上海市","city":"上海市","district":"长宁区","key_person":"?","company":"?"},{"name":"上海万众医院","name_format":"上海万众医院","lat":31.189357,"lng":121.420663,"address":"吴中路2-1号","telephone":"021-64389999","adcode":"310104","province":"上海市","city":"上海市","district":"徐汇区","key_person":"?","company":"?"},{"name":"上海沪申五官科医院","name_format":"上海沪申五官科医院","lat":31.156646,"lng":121.442923,"address":"石龙路269","telephone":"021-54305338#021-62119666","adcode":"310104","province":"上海市","city":"上海市","district":"徐汇区","key_person":"?","company":"?"},{"name":"上海同德医院","name_format":"上海同德医院","lat":31.161389,"lng":121.105799,"address":"盈港路1006号","telephone":"021-69220999#021-69229050","adcode":"310118","province":"上海市","city":"上海市","district":"青浦区","key_person":"?","company":"?"},{"name":"上海健桥医院","name_format":"上海健桥医院","lat":31.252057,"lng":121.46474,"address":"中兴路1122号","telephone":"021-57898272#021-56659999","adcode":"310108","province":"上海市","city":"上海市","district":"闸北区","key_person":"?","company":"?"},{"name":"上海九州泌尿医院","name_format":"上海九洲医院男科","lat":31.269399,"lng":121.386936,"address":"真南路685号(近李子园站)","telephone":"021-66266666","adcode":"310107","province":"上海市","city":"上海市","district":"普陀区","key_person":"?","company":"?"},{"name":"上海心脏病医院","name_format":"上海心脏病医院仁济医院血管外科","lat":31.207105,"lng":121.52504,"address":"东方路1630号东仁济医院干保楼9楼(近北园路)","telephone":"?","adcode":"310115","province":"上海市","city":"上海市","district":"浦东新区","key_person":"?","company":"?"},{"name":"上海真爱医院","name_format":"上海真爱医院","lat":31.213144,"lng":121.431825,"address":"延安西路934号(近武夷路)","telephone":"021-62269000#4008805522","adcode":"310105","province":"上海市","city":"上海市","district":"长宁区","key_person":"?","company":"?"},{"name":"上海玫瑰女子医院","name_format":"上海玫瑰女子医院工会委员会","lat":31.246994,"lng":121.451857,"address":"长安路1138号中房华东大厦","telephone":"?","adcode":"310108","province":"上海市","city":"上海市","district":"闸北区","key_person":"?","company":"?"},{"name":"上海虹桥医院","name_format":"上海虹桥医院","lat":31.174789,"lng":121.394826,"address":"虹梅路2181号(近吴中路)","telephone":"021-64659999#021-62080111","adcode":"310112","province":"上海市","city":"上海市","district":"闵行区","key_person":"?","company":"?"},{"name":"上海圣爱医院","name_format":"上海圣爱医院管理机构","lat":31.210786,"lng":121.552154,"address":"花木路838影城小筑办公楼6层","telephone":"?","adcode":"310115","province":"上海市","city":"上海市","district":"浦东新区","key_person":"?","company":"?"},{"name":"上海阿波罗男子医院","name_format":"上海阿波罗男子医院","lat":31.211873,"lng":121.484515,"address":"陆家浜路1283号(陆家浜路与西藏南路交叉口)","telephone":"021-63463677#021-63458111#4008205191","adcode":"310101","province":"上海市","city":"上海市","district":"黄浦区","key_person":"?","company":"?"},{"name":"上海英港泌尿外科医院","name_format":"上海英港泌尿外科医院","lat":31.373754,"lng":121.497228,"address":"淞滨路130号(近同泰路吴淞码头)","telephone":"021-56846229#021-56841666","adcode":"310113","province":"上海市","city":"上海市","district":"宝山区","key_person":"?","company":"?"},{"name":"上海玛丽女子医院","name_format":"上海玛丽医院","lat":31.148965,"lng":121.118921,"address":"公园路380号","telephone":"021-60518120#021-69726088","adcode":"310118","province":"上海市","city":"上海市","district":"青浦区","key_person":"?","company":"?"},{"name":"上海真美妇科医院","name_format":"上海真美妇科医院","lat":31.265116,"lng":121.535747,"address":"宁国路313弄4号","telephone":"021-55970067","adcode":"310110","province":"上海市","city":"上海市","district":"杨浦区","key_person":"?","company":"?"},{"name":"上海安真医院","name_format":"安贞医院","lat":31.031347,"lng":121.24715,"address":"茸梅路208号","telephone":"13585502785","adcode":"310117","province":"上海市","city":"上海市","district":"松江区","key_person":"?","company":"?"},{"name":"上海江东泌尿外科医院","name_format":"可的便利店(浦东店)","lat":31.26473,"lng":121.56863,"address":"浦东大道2631号(浦东大道团林路)","telephone":"021-58507673","adcode":"310115","province":"上海市","city":"上海市","district":"浦东新区","key_person":"?","company":"?"},{"name":"上海安平医院","name_format":"上海安平医院","lat":31.202076,"lng":121.696158,"address":"川沙路4425号","telephone":"021-58981111","adcode":"310115","province":"上海市","city":"上海市","district":"浦东新区","key_person":"?","company":"?"},{"name":"上海南浦妇科医院","name_format":"上海南浦妇科医院","lat":31.204532,"lng":121.513697,"address":"浦东南路2250号","telephone":"021-58891199","adcode":"310115","province":"上海市","city":"上海市","district":"浦东新区","key_person":"?","company":"?"},{"name":"上海九龙男子医院","name_format":"九龙男子医院","lat":31.216621,"lng":121.411435,"address":"中山西路333号","telephone":"021-52733999#021-52750399#021-60643591#021-60545303","adcode":"310105","province":"上海市","city":"上海市","district":"长宁区","key_person":"?","company":"?"},{"name":"上海康新医院","name_format":"康新医院","lat":31.23631,"lng":121.44137,"address":"余姚路139号(常德路口)","telephone":"?","adcode":"310106","province":"上海市","city":"上海市","district":"静安区","key_person":"?","company":"?"},{"name":"上海市闵行区中医院","name_format":"上海市闵行区中医医院","lat":31.17763,"lng":121.379479,"address":"合川路3071号","telephone":"021-51876888#4006566210","adcode":"310112","province":"上海市","city":"上海市","district":"闵行区","key_person":"?","company":"?"},{"name":"上海解放军411医院","name_format":"中国人民解放军第四一一医院","lat":31.265135,"lng":121.480523,"address":"东江湾路15号大楼","telephone":"021-56969799#021-65876866#021-81867114","adcode":"310109","province":"上海市","city":"上海市","district":"虹口区","key_person":"?","company":"?"},{"name":"上海博大医院","name_format":"上海博大医院","lat":31.005671,"lng":121.229852,"address":"阔街55号(人民南路良友商厦苏宁电器后面)","telephone":"021-57818599#4001688002","adcode":"310117","province":"上海市","city":"上海市","district":"松江区","key_person":"?","company":"?"},{"name":"上海阳光中医医院","name_format":"上海市中医医院","lat":31.2592,"lng":121.471649,"address":"芷江中路274","telephone":"021-56639828#021-56634500#021-51078220","adcode":"310108","province":"上海市","city":"上海市","district":"闸北区","key_person":"?","company":"?"},{"name":"上饶东大肛肠专科医院","name_format":"上饶东大肛肠专科医院","lat":28.460165,"lng":117.968526,"address":"带湖路60号,汽车站往北300米","telephone":"0793-8277666","adcode":"361102","province":"江西省","city":"上饶市","district":"信州区","key_person":"?","company":"?"},{"name":"上饶协和医院","name_format":"上饶协和医院","lat":28.441364,"lng":117.97654,"address":"滨江西路11号(近工商大夏)","telephone":"0793-8299966","adcode":"361102","province":"江西省","city":"上饶市","district":"信州区","key_person":"?","company":"?"},{"name":"东莞南华妇科医院","name_format":"东莞南华妇科医院","lat":22.960087,"lng":113.9134,"address":"大朗富民北路163号","telephone":"4006150120#0769-82226999","adcode":"441900","province":"广东省","city":"东莞市","district":"东莞市","key_person":"?","company":"?"},{"name":"东莞万福妇产医院","name_format":"东莞万福妇产医院","lat":22.814334,"lng":113.695461,"address":"虎门长德路180号","telephone":"0769-82887999#4000361120","adcode":"441900","province":"广东省","city":"东莞市","district":"东莞市","key_person":"?","company":"?"},{"name":"东莞康桥妇科医院","name_format":"东莞韩美美容医院","lat":23.017933,"lng":113.737671,"address":"鸿福西路天诚康桥华苑2层","telephone":"0769-28633555","adcode":"441900","province":"广东省","city":"东莞市","district":"东莞市","key_person":"?","company":"?"},{"name":"东莞东方泌尿专科医院","name_format":"东莞东方泌尿医院","lat":23.040823,"lng":113.778713,"address":"东城中路与东纵大道交汇处(大地大厦对面)","telephone":"0769-27285999#0769-27285199","adcode":"441900","province":"广东省","city":"东莞市","district":"东莞市","key_person":"?","company":"?"},{"name":"东莞常平医院","name_format":"东莞市常平人民医院","lat":22.966875,"lng":114.017664,"address":"常平镇常板石大道82号","telephone":"0769-83912333#0769-83996766","adcode":"441900","province":"广东省","city":"东莞市","district":"东莞市","key_person":"?","company":"?"},{"name":"东莞现代妇科医院","name_format":"东莞现代妇科医院","lat":23.059268,"lng":113.800729,"address":"环城东路桑园路段圃园路口","telephone":"0769-22011111#0769-22013188","adcode":"441900","province":"广东省","city":"东莞市","district":"东莞市","key_person":"?","company":"?"},{"name":"东莞乌沙医院","name_format":"长安乌沙医院","lat":22.794032,"lng":113.782304,"address":"长安镇乌沙社区李屋大道乌沙派出所旁","telephone":"0769-85538120#0769-85328288","adcode":"441900","province":"广东省","city":"东莞市","district":"东莞市","key_person":"?","company":"?"},{"name":"中山阳光医院","name_format":"中山市阳光医疗","lat":22.503317,"lng":113.37843,"address":"博爱三路与岐关西路交界处(南下市场对面)","telephone":"?","adcode":"442000","province":"广东省","city":"中山市","district":"中山市","key_person":"?","company":"?"},{"name":"中山和平中医院","name_format":"中山和平中医院","lat":22.684296,"lng":113.238387,"address":"小榄镇民安北路45号","telephone":"?","adcode":"442000","province":"广东省","city":"中山市","district":"中山市","key_person":"?","company":"?"},{"name":"中山市国丹中医院","name_format":"广州中医药大学中山国丹中医院","lat":22.552989,"lng":113.458175,"address":"沙边路3号","telephone":"0760-88588333#0760-88588386","adcode":"442000","province":"广东省","city":"中山市","district":"中山市","key_person":"?","company":"?"},{"name":"中山现代妇科医院","name_format":"中山现代妇产医院","lat":22.511887,"lng":113.394716,"address":"东区街道中山四路12号","telephone":"0760-88391111#0760-88234111","adcode":"442000","province":"广东省","city":"中山市","district":"中山市","key_person":"?","company":"?"},{"name":"临汾现代女子医院","name_format":"临汾现代女子医院","lat":36.071415,"lng":111.516369,"address":"五一西路34号建行小企业中心现代女子医院旁","telephone":"0357-2313333#0357-2152263","adcode":"141002","province":"山西省","city":"临汾市","district":"尧都区","key_person":"?","company":"?"},{"name":"乌海现代医院","name_format":"乌海现代医院","lat":39.672001,"lng":106.824903,"address":"千里山东街40号(人民公园南门路口)1完小斜对面","telephone":"0473-6933333#0473-6961111","adcode":"150302","province":"内蒙古自治区","city":"乌海市","district":"海勃湾区","key_person":"?","company":"?"},{"name":"乌鲁木齐新彊维吾尔自治区人民医院肿瘤中心","name_format":"新疆维吾尔自治区人民医院-肿瘤中心","lat":43.784847,"lng":87.61466,"address":"龙泉街152号新疆人民医院","telephone":"?","adcode":"650102","province":"新疆维吾尔自治区","city":"乌鲁木齐市","district":"天山区","key_person":"?","company":"?"},{"name":"乌鲁木齐新疆爱德华医院","name_format":"爱德华医院","lat":43.814898,"lng":87.608186,"address":"西虹东路148号","telephone":"0991-7787199#0991-7787230#4000398112","adcode":"650105","province":"新疆维吾尔自治区","city":"乌鲁木齐市","district":"水磨沟区","key_person":"?","company":"?"},{"name":"乐山武警四川总队医院","name_format":"武警四川总队医院","lat":29.584644,"lng":103.755014,"address":"柏杨东路548号","telephone":"0833-2452888#0833-2443077","adcode":"511102","province":"四川省","city":"乐山市","district":"市中区","key_person":"?","company":"?"},{"name":"九江玛丽亚医院","name_format":"九江学院附属医院西院-玛丽亚医院","lat":29.723366,"lng":115.980415,"address":"滨江路75号(原九九商城往前50米)","telephone":"0792-8239120#0792-8805999","adcode":"360403","province":"江西省","city":"九江市","district":"浔阳区","key_person":"?","company":"?"},{"name":"九江新世纪医院","name_format":"新世纪医院(庐山北路)","lat":29.722784,"lng":115.981002,"address":"庐山路8号","telephone":"0792-8107771","adcode":"360403","province":"江西省","city":"九江市","district":"浔阳区","key_person":"?","company":"?"},{"name":"亳州涡阳阳光医院","name_format":"涡阳阳光医院","lat":33.482773,"lng":116.240384,"address":"城东立交桥东侧向北50米路西","telephone":"0558-7278002","adcode":"341621","province":"安徽省","city":"亳州市","district":"涡阳县","key_person":"?","company":"?"},{"name":"佛山顺德新世纪泌尿医院","name_format":"顺德新世纪泌尿医院","lat":22.813158,"lng":113.238929,"address":"大良南国西路黄岗路口","telephone":"0757-29282999","adcode":"440606","province":"广东省","city":"佛山市","district":"顺德区","key_person":"?","company":"?"},{"name":"佛山三水女子医院","name_format":"三水区恒德医院","lat":23.169216,"lng":112.886902,"address":"西南广海大道西1号1-5层","telephone":"0757-87803777","adcode":"440607","province":"广东省","city":"佛山市","district":"三水区","key_person":"?","company":"?"},{"name":"佛山顺德阳光康复医院","name_format":"阳光康复医院","lat":22.841903,"lng":113.23996,"address":"大良镇凤山西路10号(飞马路口)","telephone":"0757-22231666","adcode":"440606","province":"广东省","city":"佛山市","district":"顺德区","key_person":"?","company":"?"},{"name":"佛山顺德庄头医院","name_format":"庄头医院","lat":22.989475,"lng":113.197656,"address":"陈村镇庄头管理区太平路49号","telephone":"0757-23319269#0757-23324832","adcode":"440606","province":"广东省","city":"佛山市","district":"顺德区","key_person":"?","company":"?"},{"name":"保定现代女子医院","name_format":"保定现代女子医院","lat":38.882481,"lng":115.457214,"address":"七一西路555号(竞秀公园西行)","telephone":"0312-5957777","adcode":"130602","province":"河北省","city":"保定市","district":"竞秀区","key_person":"?","company":"?"},{"name":"保定世纪协和医院","name_format":"保定世纪协和医院","lat":38.8602,"lng":115.484515,"address":"裕华西路666号","telephone":"0312-2012222#0312-5918111","adcode":"130606","province":"河北省","city":"保定市","district":"莲池区","key_person":"?","company":"?"},{"name":"保定京津医院","name_format":"唐县京津医院","lat":38.758778,"lng":114.992841,"address":"中山北大街28号","telephone":"0312-7551940","adcode":"130627","province":"河北省","city":"保定市","district":"唐县","key_person":"?","company":"?"},{"name":"保定长安医院","name_format":"赵村医院","lat":38.552125,"lng":114.91372,"address":"长安路南100米","telephone":"?","adcode":"130682","province":"河北省","city":"保定市","district":"定州市","key_person":"?","company":"?"},{"name":"保定白癜风医院","name_format":"保定华仁白癜风医院","lat":38.847368,"lng":115.493689,"address":"三丰中路379号(果品批发市场对过)","telephone":"0312-5930000#0312-5936666#4000312026","adcode":"130606","province":"河北省","city":"保定市","district":"莲池区","key_person":"?","company":"?"},{"name":"兰州仁和医院","name_format":"仁和医院","lat":36.041169,"lng":103.82852,"address":"金昌南路3号五泉山公园下广场","telephone":"0931-8110399#0931-8113156#4006460399","adcode":"620102","province":"甘肃省","city":"兰州市","district":"城关区","key_person":"?","company":"?"},{"name":"凉山男科医院","name_format":"凉山彝族自治州男科研究院","lat":27.885141,"lng":102.255785,"address":"胜利南路111号(人才市场旁、凉山妇产医院旁)","telephone":"0834-3298888#0834-2681222","adcode":"513401","province":"四川省","city":"凉山彝族自治州","district":"西昌市","key_person":"?","company":"?"},{"name":"凉山妇产医院","name_format":"凉山妇产医院-急诊","lat":27.885726,"lng":102.256119,"address":"胜利南路91号","telephone":"18981523434","adcode":"513401","province":"四川省","city":"凉山彝族自治州","district":"西昌市","key_person":"?","company":"?"},{"name":"包头现代女子妇产医院","name_format":"包头现代女子医院","lat":40.655514,"lng":109.855748,"address":"钢铁大街36号(万达广场斜对面)","telephone":"0472-6969098#0472-6969120","adcode":"150204","province":"内蒙古自治区","city":"包头市","district":"青山区","key_person":"?","company":"?"},{"name":"北京华美美莱整形医院","name_format":"北京美莱医疗美容","lat":39.924782,"lng":116.441576,"address":"朝阳门外大街227号美莱大厦","telephone":"010-56935555#010-56935488#4008980000","adcode":"110105","province":"北京市","city":"北京市","district":"朝阳区","key_person":"?","company":"?"},{"name":"北京阳光丽人妇科医院","name_format":"阳光丽人妇科医院","lat":39.931114,"lng":116.367325,"address":"赵登禹路富国街2号(近少年儿童活动中心)","telephone":"010-66167776","adcode":"110102","province":"北京市","city":"北京市","district":"西城区","key_person":"?","company":"?"},{"name":"北京市慧慈医院","name_format":"北京市慧慈医院","lat":40.1422,"lng":117.122257,"address":"新开街7号","telephone":"010-69976333#010-69961996","adcode":"110117","province":"北京市","city":"北京市","district":"平谷区","key_person":"?","company":"?"},{"name":"北京恒安中医院","name_format":"恒安中医院","lat":39.883613,"lng":116.479124,"address":"南磨房路14号院2","telephone":"010-67300912#010-67320389","adcode":"110105","province":"北京市","city":"北京市","district":"朝阳区","key_person":"?","company":"?"},{"name":"北京瑞京糖尿病医院","name_format":"北京瑞京糖尿病医院","lat":39.844383,"lng":116.415146,"address":"石榴庄南里15号","telephone":"010-88229999","adcode":"110106","province":"北京市","city":"北京市","district":"丰台区","key_person":"?","company":"?"},{"name":"北京慧中医院","name_format":"推推慧中医","lat":40.07982,"lng":116.35127,"address":"回龙观东大街336号院3号楼103室","telephone":"010-60748331#18500976101","adcode":"110114","province":"北京市","city":"北京市","district":"昌平区","key_person":"?","company":"?"},{"name":"北京北海医院","name_format":"北京北海医院","lat":39.935033,"lng":116.396699,"address":"地安门外大街甲158号","telephone":"010-64032828#010-64019060#4006783451","adcode":"110101","province":"北京市","city":"北京市","district":"东城区","key_person":"?","company":"?"},{"name":"北京玛丽妇婴医院","name_format":"北京玛丽妇婴医院","lat":39.959839,"lng":116.431,"address":"和平里北街5号(东土城路北口)","telephone":"010-64272076#010-64216666","adcode":"110105","province":"北京市","city":"北京市","district":"朝阳区","key_person":"?","company":"?"},{"name":"北京京北医院","name_format":"北京京北医院","lat":40.029304,"lng":116.350116,"address":"龙岗路6号(清河桥东)","telephone":"010-62991999#010-62905150","adcode":"110108","province":"北京市","city":"北京市","district":"海淀区","key_person":"?","company":"?"},{"name":"北京前海股骨头医院","name_format":"北京前海股骨头医院","lat":39.932927,"lng":116.385172,"address":"地安门西大街丙28号","telephone":"010-66551166#4006655166","adcode":"110102","province":"北京市","city":"北京市","district":"西城区","key_person":"?","company":"?"},{"name":"北京华医中西医结合皮肤病医院","name_format":"北京华医中西医结合皮肤病医院","lat":39.955468,"lng":116.274945,"address":"西四环北路29号(四季青政府向北侧)","telephone":"010-68685858","adcode":"110108","province":"北京市","city":"北京市","district":"海淀区","key_person":"?","company":"?"},{"name":"北京建国医院","name_format":"北京建国医院","lat":39.914616,"lng":116.478277,"address":"西大望路2号","telephone":"010-65856606","adcode":"110105","province":"北京市","city":"北京市","district":"朝阳区","key_person":"?","company":"?"},{"name":"北京国际医疗中心","name_format":"北京国际医疗中心","lat":39.949843,"lng":116.465893,"address":"亮马桥路50号燕莎中心办公楼(近燕莎友谊商城)","telephone":"010-64651561","adcode":"110105","province":"北京市","city":"北京市","district":"朝阳区","key_person":"?","company":"?"},{"name":"北京天伦不孕不育医院","name_format":"北京天伦不孕不育医院","lat":39.918447,"lng":116.4357,"address":"朝阳门南大街12号","telephone":"010-85631116","adcode":"110105","province":"北京市","city":"北京市","district":"朝阳区","key_person":"?","company":"?"},{"name":"北京众安康中医骨科","name_format":"北京众安康颈腰椎保健职业技能培训学校","lat":39.922075,"lng":116.494995,"address":"朝阳北路红领巾桥往东100米(红领巾公园南门对面北京众安康中医骨科医院院内)","telephone":"18310508462","adcode":"110105","province":"北京市","city":"北京市","district":"朝阳区","key_person":"?","company":"?"},{"name":"北京美联臣医疗美容医院","name_format":"北京美联臣医疗美容医院","lat":39.88708,"lng":116.462098,"address":"东三环南路乙52-2号","telephone":"010-87729730#010-87728888","adcode":"110105","province":"北京市","city":"北京市","district":"朝阳区","key_person":"?","company":"?"},{"name":"北京德胜门中医院","name_format":"北京德胜门中医院","lat":39.952177,"lng":116.380156,"address":"德胜门外大街200号(德胜门箭楼的东北角)","telephone":"010-84044848#010-57175152","adcode":"110102","province":"北京市","city":"北京市","district":"西城区","key_person":"?","company":"?"},{"name":"北京麦瑞骨科医院","name_format":"北京麦瑞骨科医院","lat":40.023324,"lng":116.418567,"address":"北苑路甲1号","telephone":"010-64479999#010-64479913","adcode":"110105","province":"北京市","city":"北京市","district":"朝阳区","key_person":"?","company":"?"},{"name":"北京健宫医院","name_format":"北京市健宫医院","lat":39.880918,"lng":116.375751,"address":"菜市口南大街儒福里6号","telephone":"010-83521777#010-63532299","adcode":"110102","province":"北京市","city":"北京市","district":"西城区","key_person":"?","company":"?"},{"name":"北京军都医院","name_format":"北京军都医院","lat":39.96312,"lng":116.382538,"address":"德胜门外黄寺大街乙25号","telephone":"010-82960408#010-82960452#4000600890","adcode":"110102","province":"北京市","city":"北京市","district":"西城区","key_person":"?","company":"?"},{"name":"北京京城皮肤病医院","name_format":"北京京城皮肤病医院","lat":40.008575,"lng":116.36546,"address":"北沙滩桥北双泉堡甲4号","telephone":"010-83838389#010-64888999","adcode":"110105","province":"北京市","city":"北京市","district":"朝阳区","key_person":"?","company":"?"},{"name":"南京454医院妇产科","name_format":"四五四妇医院门诊二部妇产科门诊","lat":32.029895,"lng":118.798557,"address":"马路街1号","telephone":"?","adcode":"320104","province":"江苏省","city":"南京市","district":"秦淮区","key_person":"?","company":"?"},{"name":"南京医科二附院协作医院","name_format":"南京医科大学第二附属医院(姜家园)","lat":32.080338,"lng":118.745025,"address":"姜家园121号","telephone":"025-58509990#025-58509900#025-58802883","adcode":"320106","province":"江苏省","city":"南京市","district":"鼓楼区","key_person":"?","company":"?"},{"name":"南京市江宁区众彩门诊部","name_format":"江宁众彩门诊部","lat":31.984179,"lng":118.887079,"address":"东麒路51号附近","telephone":"?","adcode":"320115","province":"江苏省","city":"南京市","district":"江宁区","key_person":"?","company":"?"},{"name":"南京江宁博爱医院","name_format":"博爱医院(同夏路)","lat":31.957798,"lng":118.863047,"address":"东山街道同夏路19号(东山总站)","telephone":"025-52188554#025-52187885","adcode":"320115","province":"江苏省","city":"南京市","district":"江宁区","key_person":"?","company":"?"},{"name":"南京港龙医院","name_format":"南京港龙医院","lat":32.033977,"lng":118.831677,"address":"苜蓿园大街48号","telephone":"025-52323232#025-83416888","adcode":"320104","province":"江苏省","city":"南京市","district":"秦淮区","key_person":"?","company":"?"},{"name":"南京军区机关医院妇科","name_format":"南京军区机关医院","lat":32.050813,"lng":118.807786,"address":"龙蟠中路46号","telephone":"025-84825150#025-83858885#4000253120","adcode":"320102","province":"江苏省","city":"南京市","district":"玄武区","key_person":"?","company":"?"},{"name":"南京东院门诊部","name_format":"南京市第一医院东院门诊部","lat":32.019043,"lng":118.820595,"address":"?","telephone":"025-84685018","adcode":"320104","province":"江苏省","city":"南京市","district":"秦淮区","key_person":"?","company":"?"},{"name":"南京世纪现代妇产医院（南院、东院）","name_format":"南京世纪现代妇产医院","lat":31.938616,"lng":118.872309,"address":"天元东路358号(义乌小商品城西行450米)","telephone":"025-52167333#025-86900000","adcode":"320115","province":"江苏省","city":"南京市","district":"江宁区","key_person":"?","company":"?"},{"name":"南京亚韩整形美容医院","name_format":"亚韩医学美容医院","lat":31.949966,"lng":118.85106,"address":"金箔路女人街468号","telephone":"025-52177777","adcode":"320115","province":"江苏省","city":"南京市","district":"江宁区","key_person":"?","company":"?"},{"name":"南京空军机关医院神经科","name_format":"南京空军机关医院","lat":32.053808,"lng":118.803592,"address":"北京东路38号(北大门)","telephone":"?","adcode":"320102","province":"江苏省","city":"南京市","district":"玄武区","key_person":"?","company":"?"},{"name":"南京仁品耳鼻喉专科医院","name_format":"仁品耳鼻喉医院","lat":32.015132,"lng":118.782233,"address":"中华路528号","telephone":"025-85262032","adcode":"320104","province":"江苏省","city":"南京市","district":"秦淮区","key_person":"?","company":"?"},{"name":"南京阳光肿瘤医院","name_format":"南京阳光心理咨询中心","lat":32.070174,"lng":118.770141,"address":"中山北路215-1号中商万豪407室(山西路苏宁电器,山西路青少年宫青春剧场)","telephone":"025-83690068#18951705690","adcode":"320106","province":"江苏省","city":"南京市","district":"鼓楼区","key_person":"?","company":"?"},{"name":"南京解放军81医院","name_format":"八一医院","lat":32.034824,"lng":118.794506,"address":"常府街三十四标34号","telephone":"025-84514181#025-80864419#025-85868181","adcode":"320104","province":"江苏省","city":"南京市","district":"秦淮区","key_person":"?","company":"?"},{"name":"南京江苏施尔美整形美容医院","name_format":"江苏施尔美整形美容医院","lat":32.029289,"lng":118.791145,"address":"太平南路389号凤凰和睿大厦101-201-301室","telephone":"025-83533399#4006900188","adcode":"320104","province":"江苏省","city":"南京市","district":"秦淮区","key_person":"?","company":"?"},{"name":"南京长海医院","name_format":"南京长海医院","lat":32.1525,"lng":118.713599,"address":"宁六路38号","telephone":"025-86461195#025-84863999","adcode":"320111","province":"江苏省","city":"南京市","district":"浦口区","key_person":"?","company":"?"},{"name":"南京医科大学附属友谊整形外科医院","name_format":"南京医科大学友谊整形外科医院","lat":32.042808,"lng":118.77388,"address":"汉中路146号(近南京省中医院)","telephone":"025-86677828#025-86677822#4008887822","adcode":"320106","province":"江苏省","city":"南京市","district":"鼓楼区","key_person":"?","company":"?"},{"name":"南京迈皋桥医院","name_format":"迈皋桥医院","lat":32.102194,"lng":118.808524,"address":"和燕路290号","telephone":"025-85504083#025-85502008","adcode":"320113","province":"江苏省","city":"南京市","district":"栖霞区","key_person":"?","company":"?"},{"name":"南京454医院植发科","name_format":"南京454医院(男科)","lat":32.029045,"lng":118.798752,"address":"马路街1号南京454医院","telephone":"025-83364104","adcode":"320104","province":"江苏省","city":"南京市","district":"秦淮区","key_person":"?","company":"?"},{"name":"南京曙光医院","name_format":"南京曙光医院","lat":32.006486,"lng":118.782878,"address":"中华门外正学路1号(近晨光厂)","telephone":"025-84410000#025-52410093#18915959119","adcode":"320104","province":"江苏省","city":"南京市","district":"秦淮区","key_person":"?","company":"?"},{"name":"南京邦德骨科医院","name_format":"南京邦德骨科医院","lat":32.047726,"lng":118.806023,"address":"龙蟠中路97号","telephone":"025-52228222#025-58525722","adcode":"320102","province":"江苏省","city":"南京市","district":"玄武区","key_person":"?","company":"?"},{"name":"南京肛泰中医院","name_format":"南京肛泰中医医院","lat":32.016028,"lng":118.748369,"address":"黄山路2号","telephone":"025-66660097#025-66662226","adcode":"320105","province":"江苏省","city":"南京市","district":"建邺区","key_person":"?","company":"?"},{"name":"南京蓝十字脑科医院","name_format":"南京脑科医院","lat":32.050267,"lng":118.768497,"address":"广州路264号","telephone":"025-82296000#025-82296409","adcode":"320106","province":"江苏省","city":"南京市","district":"鼓楼区","key_person":"?","company":"?"},{"name":"南京建国男科医院","name_format":"南京建国医院","lat":32.01387,"lng":118.796334,"address":"长乐路238号","telephone":"025-52238888#025-52246802#4000025802","adcode":"320104","province":"江苏省","city":"南京市","district":"秦淮区","key_person":"?","company":"?"},{"name":"南京华美整形美容医院","name_format":"南京华美美容医院","lat":32.046478,"lng":118.805234,"address":"珠江路655号","telephone":"025-83336888","adcode":"320102","province":"江苏省","city":"南京市","district":"玄武区","key_person":"?","company":"?"},{"name":"南京康豪妇科","name_format":"康豪医疗","lat":32.121339,"lng":118.88519,"address":"尧化门尧佳路33号","telephone":"025-85566677","adcode":"320113","province":"江苏省","city":"南京市","district":"栖霞区","key_person":"?","company":"?"},{"name":"南京长江医院植发科","name_format":"南京长江医院","lat":32.087111,"lng":118.768445,"address":"新门口18号","telephone":"025-83416999#025-85262102","adcode":"320106","province":"江苏省","city":"南京市","district":"鼓楼区","key_person":"?","company":"?"},{"name":"南京维多利亚美容诊所","name_format":"维多利亚整形","lat":32.030959,"lng":118.769284,"address":"虎踞南路100-102号建宇大厦","telephone":"025-52258888#025-66653888#4008113777","adcode":"320104","province":"江苏省","city":"南京市","district":"秦淮区","key_person":"?","company":"?"},{"name":"南充解放军51医院","name_format":"中国人民解放军第五十一医院","lat":30.805004,"lng":106.088969,"address":"铁荣路22号","telephone":"0817-2395151","adcode":"511302","province":"四川省","city":"南充市","district":"顺庆区","key_person":"?","company":"?"},{"name":"南昌市第五医院","name_format":"南昌市第五医院","lat":28.63186,"lng":115.915934,"address":"井冈山大道239号","telephone":"0791-88450196#0791-86658901#0791-86353355","adcode":"360104","province":"江西省","city":"南昌市","district":"青云谱区","key_person":"?","company":"?"},{"name":"南昌泌尿专科医院","name_format":"南昌博爱泌尿专科医院","lat":28.686216,"lng":115.886684,"address":"胜利路355号(近江西出版大厦)","telephone":"0791-86658922#0791-86823322","adcode":"360102","province":"江西省","city":"南昌市","district":"东湖区","key_person":"?","company":"?"},{"name":"南昌佳美美容医院","name_format":"南昌佳美美容医院","lat":28.646649,"lng":115.922172,"address":"洪都南大道273号","telephone":"0791-86660000#4006796066","adcode":"360104","province":"江西省","city":"南昌市","district":"青云谱区","key_person":"?","company":"?"},{"name":"南昌曙光手足外科医院","name_format":"南昌曙光手足外科医院","lat":28.654356,"lng":115.923431,"address":"解放西路99号","telephone":"0791-88230000#13367096889","adcode":"360104","province":"江西省","city":"南昌市","district":"青云谱区","key_person":"?","company":"?"},{"name":"南昌博大耳鼻咽喉专科医院","name_format":"博大耳鼻咽喉医院","lat":28.641913,"lng":115.918533,"address":"洪都南大道237号","telephone":"0791-86658908","adcode":"360104","province":"江西省","city":"南昌市","district":"青云谱区","key_person":"?","company":"?"},{"name":"南昌东大肛肠专科医院","name_format":"南昌东大肛肠专科医院","lat":28.68615,"lng":115.886411,"address":"胜利路298号(步步高商场对面)","telephone":"0791-86822072#0791-86806111","adcode":"360102","province":"江西省","city":"南昌市","district":"东湖区","key_person":"?","company":"?"},{"name":"南昌仁爱女子医院","name_format":"南昌仁爱妇产医院","lat":28.654542,"lng":115.883031,"address":"洪城路636号","telephone":"0791-85207758#0791-86573333","adcode":"360103","province":"江西省","city":"南昌市","district":"西湖区","key_person":"?","company":"?"},{"name":"南昌华山不孕不育医院","name_format":"南昌华山不孕不育专科医院","lat":28.629109,"lng":115.907703,"address":"迎宾北大道285号","telephone":"0791-86658913#0791-85211313","adcode":"360104","province":"江西省","city":"南昌市","district":"青云谱区","key_person":"?","company":"?"},{"name":"南通长城医院","name_format":"南通长城医院(人民西路)","lat":32.014737,"lng":120.833926,"address":"人民西路366号(长途汽车站旁)","telephone":"0513-88100000#4000138810#15862716208","adcode":"320602","province":"江苏省","city":"南通市","district":"崇川区","key_person":"?","company":"?"},{"name":"南通和美家妇产科医院","name_format":"南通和美家妇产科医院","lat":31.963755,"lng":120.89481,"address":"啬园路8号(体育会展中心南门正对面)","telephone":"0513-68688888#4000196868#15262762822","adcode":"320602","province":"江苏省","city":"南通市","district":"崇川区","key_person":"?","company":"?"},{"name":"厦门登特口腔医院","name_format":"登特口腔(莲花南路)","lat":24.48339,"lng":118.123538,"address":"嘉禾路108号香江花园1层","telephone":"0592-5139999#0592-2229888","adcode":"350203","province":"福建省","city":"厦门市","district":"思明区","key_person":"?","company":"?"},{"name":"厦门友好妇科","name_format":"厦门友好妇产医院","lat":24.488101,"lng":118.123367,"address":"长青路283之9-12号嘉华大厦","telephone":"0592-3688888","adcode":"350203","province":"福建省","city":"厦门市","district":"思明区","key_person":"?","company":"?"},{"name":"厦门湖里康乐门诊部","name_format":"康乐门诊部(兴隆路)","lat":24.506864,"lng":118.117658,"address":"兴隆路470-474号","telephone":"0592-2616658","adcode":"350206","province":"福建省","city":"厦门市","district":"湖里区","key_person":"?","company":"?"},{"name":"台州温岭和平医院","name_format":"温岭和平医院","lat":28.500381,"lng":121.366439,"address":"泽国镇水仓路1号","telephone":"0576-86429999","adcode":"331081","province":"浙江省","city":"台州市","district":"温岭市","key_person":"?","company":"?"},{"name":"合肥丹凤朝阳妇科医院","name_format":"安徽合肥丹凤朝阳妇产医院","lat":31.883631,"lng":117.306196,"address":"站西路和临泉路交叉口","telephone":"0551-64250055#0551-64250033","adcode":"340102","province":"安徽省","city":"合肥市","district":"瑶海区","key_person":"?","company":"?"},{"name":"合肥市中山医院","name_format":"合肥中山医院","lat":31.873562,"lng":117.314506,"address":"凤阳路8号","telephone":"0551-64256999#0551-64251111","adcode":"340102","province":"安徽省","city":"合肥市","district":"瑶海区","key_person":"?","company":"?"},{"name":"合肥九龙男科医院","name_format":"合肥九龙男科医院停车场","lat":31.866173,"lng":117.305979,"address":"明光路137号附近","telephone":"0551-62690791","adcode":"340102","province":"安徽省","city":"合肥市","district":"瑶海区","key_person":"?","company":"?"},{"name":"呼和浩特内蒙古天骄医院","name_format":"内蒙古天骄医院","lat":40.842842,"lng":111.652153,"address":"通道北街235号","telephone":"0471-5195999","adcode":"150102","province":"内蒙古自治区","city":"呼和浩特市","district":"新城区","key_person":"?","company":"?"},{"name":"呼和浩特五洲女子医院","name_format":"呼和浩特五洲医院","lat":40.800771,"lng":111.666323,"address":"石羊桥路200号(近五塔寺)","telephone":"0471-3339344#0471-3339777","adcode":"150104","province":"内蒙古自治区","city":"呼和浩特市","district":"玉泉区","key_person":"?","company":"?"},{"name":"哈尔滨黑龙江省武警黄金医院妇科","name_format":"哈尔滨武警黄金医院妇科","lat":45.704213,"lng":126.638237,"address":"保健副路3号","telephone":"?","adcode":"230103","province":"黑龙江省","city":"哈尔滨市","district":"南岗区","key_person":"?","company":"?"},{"name":"哈尔滨欧亚男科医院","name_format":"哈尔滨欧亚男科医院","lat":45.777845,"lng":126.671526,"address":"南通大街133号","telephone":"0451-86134299#0451-86138888","adcode":"230103","province":"黑龙江省","city":"哈尔滨市","district":"南岗区","key_person":"?","company":"?"},{"name":"哈尔滨黑龙江和平医院","name_format":"黑龙江和平医院","lat":45.767215,"lng":126.668699,"address":"宣化街467号","telephone":"0451-82520955#0451-82827009","adcode":"230103","province":"黑龙江省","city":"哈尔滨市","district":"南岗区","key_person":"?","company":"?"},{"name":"哈尔滨市生殖保健中心院","name_format":"九龙藏医院","lat":45.752817,"lng":126.600759,"address":"哈药路252号(建国北四道街和哈药路交叉口)","telephone":"0451-84832055","adcode":"230102","province":"黑龙江省","city":"哈尔滨市","district":"道里区","key_person":"?","company":"?"},{"name":"哈尔滨黑龙江和美妇产医院","name_format":"黑龙江和美妇产医院","lat":45.743272,"lng":126.671955,"address":"赣水路13号(福顺天天大酒店对面)","telephone":"0451-87256888#0451-88895888","adcode":"230103","province":"黑龙江省","city":"哈尔滨市","district":"南岗区","key_person":"?","company":"?"},{"name":"哈尔滨黑龙江长庚耳鼻喉医院","name_format":"黑龙江长庚耳鼻喉医院","lat":45.737284,"lng":126.622789,"address":"通达街69号(原国脉大楼)","telephone":"0451-55587507#0451-55508888#4006286777","adcode":"230103","province":"黑龙江省","city":"哈尔滨市","district":"南岗区","key_person":"?","company":"?"},{"name":"哈尔滨黑龙江玛丽亚妇产医院","name_format":"黑龙江玛丽亚妇产医院","lat":45.74468,"lng":126.666309,"address":"宣化街2号","telephone":"0451-82676666#0451-82807966","adcode":"230103","province":"黑龙江省","city":"哈尔滨市","district":"南岗区","key_person":"?","company":"?"},{"name":"哈尔滨黑龙江东北医院","name_format":"黑龙江东北肝胆医院","lat":45.745307,"lng":126.652089,"address":"文明街15号","telephone":"0451-58886377#0451-82610088","adcode":"230103","province":"黑龙江省","city":"哈尔滨市","district":"南岗区","key_person":"?","company":"?"},{"name":"哈尔滨黑龙江阳光女子医院","name_format":"黑龙江阳光女子专科医院","lat":45.747985,"lng":126.655457,"address":"中山路228","telephone":"0451-83198888#0451-58819845","adcode":"230103","province":"黑龙江省","city":"哈尔滨市","district":"南岗区","key_person":"?","company":"?"},{"name":"唐山京城皮肤病医院","name_format":"唐山京城皮肤病医院","lat":39.630018,"lng":118.150019,"address":"西山道与大里路十字路口","telephone":"0315-3731111#0315-7831111","adcode":"130203","province":"河北省","city":"唐山市","district":"路北区","key_person":"?","company":"?"},{"name":"唐山女子医院","name_format":"唐山女子医院停车场","lat":39.625333,"lng":118.138406,"address":"新华西道116号金融大厦1层","telephone":"?","adcode":"130202","province":"河北省","city":"唐山市","district":"路南区","key_person":"?","company":"?"},{"name":"唐山红十字医院","name_format":"唐山红十字妇产医院","lat":39.633559,"lng":118.172603,"address":"北新西道10号","telephone":"0315-8077777","adcode":"130203","province":"河北省","city":"唐山市","district":"路北区","key_person":"?","company":"?"},{"name":"嘉兴浙江新安国际医院","name_format":"浙江新安国际医院","lat":30.764809,"lng":120.694764,"address":"洪兴路2369号","telephone":"0573-82299999#0573-82068999","adcode":"330411","province":"浙江省","city":"嘉兴市","district":"秀洲区","key_person":"?","company":"?"},{"name":"嘉兴博爱医院","name_format":"嘉兴博爱医院(男性泌尿科)","lat":30.759895,"lng":120.733809,"address":"中山东路1291号(原老汽车总站对面)","telephone":"0573-82056999#4008871120","adcode":"330402","province":"浙江省","city":"嘉兴市","district":"南湖区","key_person":"?","company":"?"},{"name":"嘉兴曙光中西医结合医院","name_format":"曙光医院","lat":30.737882,"lng":120.771925,"address":"中环南路与纺工路交叉口","telephone":"0573-82535541#0573-82535566#0573-82535501","adcode":"330402","province":"浙江省","city":"嘉兴市","district":"南湖区","key_person":"?","company":"?"},{"name":"四平阳光医院","name_format":"阳光医院(迎宾路)","lat":43.500921,"lng":124.819229,"address":"迎宾路1128号","telephone":"0434-6297799","adcode":"220381","province":"吉林省","city":"四平市","district":"公主岭市","key_person":"?","company":"?"},{"name":"大同新时代妇科医院","name_format":"新时代妇科医院(魏都大道)","lat":40.110769,"lng":113.289268,"address":"新建北路307号","telephone":"0352-2433999#13643425078","adcode":"140202","province":"山西省","city":"大同市","district":"城区","key_person":"?","company":"?"},{"name":"大连新世纪医院","name_format":"新世纪超市(复盐医院南)","lat":39.422694,"lng":121.663742,"address":"兴湾街38号(中国信合迟屯信用分社东南)","telephone":"0411-85205157#0411-85206566","adcode":"210281","province":"辽宁省","city":"大连市","district":"瓦房店市","key_person":"?","company":"?"},{"name":"大连阳光医院","name_format":"大连阳光医院","lat":38.906928,"lng":121.601663,"address":"拥警街4号","telephone":"0411-84320952#0411-84317000","adcode":"210203","province":"辽宁省","city":"大连市","district":"西岗区","key_person":"?","company":"?"},{"name":"天津华厦医院","name_format":"华夏银行ATM(离行式圣爱医院)","lat":39.030388,"lng":117.688143,"address":"第二大街10号","telephone":"?","adcode":"120116","province":"天津市","city":"天津市","district":"滨海新区","key_person":"?","company":"?"},{"name":"天津坤如玛丽医院","name_format":"天津坤如玛丽妇产医院","lat":39.053014,"lng":117.231451,"address":"解放南路488号","telephone":"022-58785555#022-58785510","adcode":"120103","province":"天津市","city":"天津市","district":"河西区","key_person":"?","company":"?"},{"name":"天津丽人女子医院","name_format":"丽人医院","lat":39.109928,"lng":117.237525,"address":"大直沽中路128号","telephone":"022-24156655","adcode":"120102","province":"天津市","city":"天津市","district":"河东区","key_person":"?","company":"?"},{"name":"天津现代女子医院","name_format":"天津现代女子医院","lat":39.134636,"lng":117.203036,"address":"进步道21号(世纪钟旁)","telephone":"022-24459999#022-24462722","adcode":"120105","province":"天津市","city":"天津市","district":"河北区","key_person":"?","company":"?"},{"name":"天津长庚耳鼻喉医院","name_format":"长庚耳鼻喉医院","lat":39.17679,"lng":117.180359,"address":"天泰路130号","telephone":"022-26429999#4009976120","adcode":"120105","province":"天津市","city":"天津市","district":"河北区","key_person":"?","company":"?"},{"name":"天津华北医院","name_format":"天津华北医院","lat":39.131537,"lng":117.22616,"address":"全境新开路373号","telephone":"022-24418755#022-24331990","adcode":"120102","province":"天津市","city":"天津市","district":"河东区","key_person":"?","company":"?"},{"name":"天津怡泰医院","name_format":"天津怡泰医院","lat":39.131074,"lng":117.152242,"address":"长江道90号","telephone":"022-27113333","adcode":"120104","province":"天津市","city":"天津市","district":"南开区","key_person":"?","company":"?"},{"name":"天津华山医院","name_format":"天津华山医院","lat":39.12802,"lng":117.162962,"address":"长江道30号","telephone":"022-58815666#022-58815889","adcode":"120104","province":"天津市","city":"天津市","district":"南开区","key_person":"?","company":"?"},{"name":"太原山西现代妇产医院","name_format":"山西现代妇产医院","lat":37.839645,"lng":112.579879,"address":"南内环街25号","telephone":"0351-4096888#0351-4299088","adcode":"140106","province":"山西省","city":"太原市","district":"迎泽区","key_person":"?","company":"?"},{"name":"太原糖尿病专科医院","name_format":"太原糖尿病专科医院(并州东街)","lat":37.85189,"lng":112.583221,"address":"并州东街3号","telephone":"0351-6063168#0351-4066265#4000460120","adcode":"140106","province":"山西省","city":"太原市","district":"迎泽区","key_person":"?","company":"?"},{"name":"太原武警山西总队医院","name_format":"武警医院","lat":37.804544,"lng":112.578265,"address":"师范街36号","telephone":"0351-7073747#0351-7073833","adcode":"140105","province":"山西省","city":"太原市","district":"小店区","key_person":"?","company":"?"},{"name":"太原山西民生医院","name_format":"山西民生医院","lat":37.837867,"lng":112.545127,"address":"南内环街南内环桥东","telephone":"0351-2248666#0351-2199999","adcode":"140105","province":"山西省","city":"太原市","district":"小店区","key_person":"?","company":"?"},{"name":"太原山西长庚耳鼻喉医院","name_format":"中正花园","lat":37.822486,"lng":112.588866,"address":"建设南路206号(亲贤北街与建设南路交汇处)","telephone":"?","adcode":"140106","province":"山西省","city":"太原市","district":"迎泽区","key_person":"?","company":"?"},{"name":"太原益民中医院","name_format":"益民中医院(南内环街)","lat":37.838863,"lng":112.582977,"address":"南内环街8号(南内环街东口)","telephone":"0351-5616999","adcode":"140105","province":"山西省","city":"太原市","district":"小店区","key_person":"?","company":"?"},{"name":"太原新医医院","name_format":"太原新医医院","lat":37.831414,"lng":112.583707,"address":"建南汽车站旁","telephone":"0351-7083222#4008088011#13209827533","adcode":"140105","province":"山西省","city":"太原市","district":"小店区","key_person":"?","company":"?"},{"name":"太原太白癜风医院","name_format":"山西太原白癜风医院","lat":37.832958,"lng":112.574783,"address":"并州南路47号","telephone":"0351-7070000","adcode":"140105","province":"山西省","city":"太原市","district":"小店区","key_person":"?","company":"?"},{"name":"威海现代女子医院","name_format":"威海现代女子整形美容医院","lat":37.46705,"lng":122.13874,"address":"青岛中路31-1号(国际会展中心西侧)","telephone":"0631-5161990","adcode":"371002","province":"山东省","city":"威海市","district":"环翠区","key_person":"?","company":"?"},{"name":"娄底阳光医院","name_format":"娄底阳光医院(大汉大道)","lat":27.751287,"lng":112.000023,"address":"大汉大道东418号","telephone":"0738-6793335#0738-6691120","adcode":"431302","province":"湖南省","city":"娄底市","district":"娄星区","key_person":"?","company":"?"},{"name":"宁波慈溪圣爱医院","name_format":"圣爱医院(新江路)","lat":30.177654,"lng":121.233501,"address":"新江路243号(三北西大街与新江路交叉口)","telephone":"0574-63916391#0574-66308019#4008629998","adcode":"330282","province":"浙江省","city":"宁波市","district":"慈溪市","key_person":"?","company":"?"},{"name":"宁波虹桥医院","name_format":"宁波虹桥男科医院","lat":29.864736,"lng":121.58262,"address":"中兴路505号","telephone":"0574-89115115#0574-56110888#4007112590","adcode":"330204","province":"浙江省","city":"宁波市","district":"江东区","key_person":"?","company":"?"},{"name":"宁波甬城医院","name_format":"宁波甬城医院","lat":29.891912,"lng":121.566423,"address":"大庆南路636号(东鹰宾馆西侧、日湖旁)","telephone":"0574-27859678#0574-87354321#4000923120","adcode":"330205","province":"浙江省","city":"宁波市","district":"江北区","key_person":"?","company":"?"},{"name":"宁波美莱整形美容医院","name_format":"宁波美莱整形美容","lat":29.865482,"lng":121.557242,"address":"灵桥路713号(近宁波日报社)","telephone":"?","adcode":"330203","province":"浙江省","city":"宁波市","district":"海曙区","key_person":"?","company":"?"},{"name":"宁波欧亚男科医院","name_format":"宁波欧亚男科医院","lat":29.859696,"lng":121.550134,"address":"解放南路8号","telephone":"0574-27859999#0574-27859906","adcode":"330203","province":"浙江省","city":"宁波市","district":"海曙区","key_person":"?","company":"?"},{"name":"宁波博爱医院","name_format":"宁波马应龙医院","lat":29.897918,"lng":121.581723,"address":"大庆北路318号","telephone":"0574-27610120#0574-27769999","adcode":"330205","province":"浙江省","city":"宁波市","district":"江北区","key_person":"?","company":"?"},{"name":"安阳协和医院","name_format":"安阳协和医院","lat":36.090769,"lng":114.334916,"address":"文明大道西段85号","telephone":"0372-3661777","adcode":"410506","province":"河南省","city":"安阳市","district":"龙安区","key_person":"?","company":"?"},{"name":"安顺阳光妇科医院","name_format":"安顺阳光妇科医院","lat":26.251054,"lng":105.924767,"address":"中华北路与西水路交叉口路西","telephone":"?","adcode":"520402","province":"贵州省","city":"安顺市","district":"西秀区","key_person":"?","company":"?"},{"name":"宿迁市妇产医院","name_format":"宿迁市妇产医院","lat":33.954415,"lng":118.27101,"address":"平安大道88号(老院向南200米)","telephone":"0527-84399120#0527-84399599","adcode":"321302","province":"江苏省","city":"宿迁市","district":"宿城区","key_person":"?","company":"?"},{"name":"宿迁泗洪阳光儿童医院","name_format":"苏源阳光(公交站)","lat":33.452328,"lng":118.196297,"address":"泗洪101路","telephone":"?","adcode":"321324","province":"江苏省","city":"宿迁市","district":"泗洪县","key_person":"?","company":"?"},{"name":"平顶山市武警医院","name_format":"平顶山乐缘旅馆","lat":33.7355,"lng":113.281932,"address":"建设路与凌云路交叉口向南200米(武警医院南)","telephone":"0375-7195526","adcode":"410402","province":"河南省","city":"平顶山市","district":"新华区","key_person":"?","company":"?"},{"name":"广州利德医院","name_format":"利德妇科","lat":23.17405,"lng":113.236106,"address":"横滘大道与西槎路交叉口西北50米","telephone":"?","adcode":"440111","province":"广东省","city":"广州市","district":"白云区","key_person":"?","company":"?"},{"name":"广州长泰医院","name_format":"广州市长泰不孕不育研究院","lat":23.119975,"lng":113.414888,"address":"中山大道中路1003号(东圃客运站旁)","telephone":"020-61002222#13678906777","adcode":"440106","province":"广东省","city":"广州市","district":"天河区","key_person":"?","company":"?"},{"name":"广州圣亚泌尿外科医院","name_format":"圣亚泌尿外科医院","lat":23.137713,"lng":113.314586,"address":"广州大道中601号","telephone":"020-28296666#020-28292333","adcode":"440104","province":"广东省","city":"广州市","district":"越秀区","key_person":"?","company":"?"},{"name":"广州健安医院","name_format":"新塘健安医院","lat":23.121641,"lng":113.618705,"address":"广深大道中36-44号","telephone":"020-82608206","adcode":"440118","province":"广东省","city":"广州市","district":"增城区","key_person":"?","company":"?"},{"name":"广东民安医院","name_format":"广东民安医院(A区)","lat":23.132964,"lng":113.296954,"address":"犀牛路7号","telephone":"020-62823999#020-87777120","adcode":"440104","province":"广东省","city":"广州市","district":"越秀区","key_person":"?","company":"?"},{"name":"广州长安医院","name_format":"长安医院(天河路)","lat":23.132695,"lng":113.336039,"address":"天河路502-2号","telephone":"020-22222222#4006684220","adcode":"440106","province":"广东省","city":"广州市","district":"天河区","key_person":"?","company":"?"},{"name":"广州济慈医院","name_format":"广州济慈康复医院","lat":23.104056,"lng":113.55528,"address":"水南大道一路1号","telephone":"020-32282333#020-32281595","adcode":"440118","province":"广东省","city":"广州市","district":"增城区","key_person":"?","company":"?"},{"name":"广州番禺玛莉亚肛肠医院","name_format":"番禺玛莉亚医院-内科","lat":22.958988,"lng":113.354931,"address":"桥兴大道308号","telephone":"020-39995888","adcode":"440113","province":"广东省","city":"广州市","district":"番禺区","key_person":"?","company":"?"},{"name":"广州益寿医院","name_format":"广州益寿医院","lat":23.171126,"lng":113.249028,"address":"三元里棠下益寿路68号(近地铁三元里站)","telephone":"020-22356666","adcode":"440111","province":"广东省","city":"广州市","district":"白云区","key_person":"?","company":"?"},{"name":"广州市江南医院","name_format":"广东江南医院","lat":23.091542,"lng":113.312558,"address":"南敦和路3号","telephone":"020-84286688#020-84452095","adcode":"440105","province":"广东省","city":"广州市","district":"海珠区","key_person":"?","company":"?"},{"name":"广州远东美容医院","name_format":"远东医疗门诊部","lat":23.220801,"lng":113.233017,"address":"红星村浮山南元大街29号","telephone":"?","adcode":"440111","province":"广东省","city":"广州市","district":"白云区","key_person":"?","company":"?"},{"name":"广州458医院","name_format":"解放军第四五八医院","lat":23.131926,"lng":113.313292,"address":"东风东路801号","telephone":"020-61639514","adcode":"440104","province":"广东省","city":"广州市","district":"越秀区","key_person":"?","company":"?"},{"name":"广州花都人爱医院","name_format":"花都人爱医院","lat":23.397147,"lng":113.205946,"address":"建设北路138号","telephone":"020-86967333#020-86884666","adcode":"440114","province":"广东省","city":"广州市","district":"花都区","key_person":"?","company":"?"},{"name":"广州女子医院","name_format":"广州女子医院","lat":23.099233,"lng":113.236774,"address":"陆居路42号","telephone":"020-81891166#020-81579990","adcode":"440103","province":"广东省","city":"广州市","district":"荔湾区","key_person":"?","company":"?"},{"name":"广州番禺东方俪人医院","name_format":"广州番禺东方俪人妇科医院","lat":22.940099,"lng":113.367238,"address":"市桥环城中路85号","telephone":"020-84888565","adcode":"440113","province":"广东省","city":"广州市","district":"番禺区","key_person":"?","company":"?"},{"name":"广州现代医院","name_format":"广州现代医院","lat":23.156888,"lng":113.308579,"address":"濂泉路42号","telephone":"020-22221111","adcode":"440106","province":"广东省","city":"广州市","district":"天河区","key_person":"?","company":"?"},{"name":"廊坊万福医院","name_format":"廊坊万福医院","lat":39.540014,"lng":116.70556,"address":"新华路136号(广阳道和新华路交叉口)","telephone":"0316-5269999","adcode":"131003","province":"河北省","city":"廊坊市","district":"广阳区","key_person":"?","company":"?"},{"name":"廊坊世纪协和医院","name_format":"廊坊世纪协和医院","lat":39.512687,"lng":116.708804,"address":"新华路4号","telephone":"0316-2042666#0316-2041666","adcode":"131003","province":"河北省","city":"廊坊市","district":"广阳区","key_person":"?","company":"?"},{"name":"延边延吉博生现代妇科医院","name_format":"延吉博生现代妇科医院","lat":42.912823,"lng":129.517297,"address":"爱丹路1009号粉红大厦(老客运站东100米)","telephone":"0433-2900900","adcode":"222401","province":"吉林省","city":"延边朝鲜族自治州","district":"延吉市","key_person":"?","company":"?"},{"name":"德州齐河阳光医院","name_format":"齐河县人民医院-内六病区","lat":36.793948,"lng":116.754974,"address":"阳光路与齐晏大街交叉口西南150米","telephone":"?","adcode":"371425","province":"山东省","city":"德州市","district":"齐河县","key_person":"?","company":"?"},{"name":"惠州仁德妇科医院","name_format":"惠州仁德妇科医院","lat":23.074917,"lng":114.402995,"address":"麦地路20号(天悦大酒店往汽车总站方向200米)","telephone":"0752-2370018#0752-2212222","adcode":"441302","province":"广东省","city":"惠州市","district":"惠城区","key_person":"?","company":"?"},{"name":"惠阳女子医院","name_format":"广东君盾惠阳女子医院","lat":22.775112,"lng":114.468643,"address":"人民六路与演达路交叉口(琼苑大酒店右50米)","telephone":"?","adcode":"441303","province":"广东省","city":"惠州市","district":"惠阳区","key_person":"?","company":"?"},{"name":"惠州东江泌尿专科医院","name_format":"惠州东江泌尿专科医院","lat":23.075236,"lng":114.411461,"address":"麦科特大道40号","telephone":"0752-2282166#0752-2225888#4006009237","adcode":"441302","province":"广东省","city":"惠州市","district":"惠城区","key_person":"?","company":"?"},{"name":"成都安琪儿妇产医院","name_format":"安琪儿妇产医院","lat":30.608089,"lng":104.080446,"address":"高攀路3号(毗邻机场路东沿线火车南站东路口)","telephone":"028-81922222#028-81219999#4006819222","adcode":"510107","province":"四川省","city":"成都市","district":"武侯区","key_person":"?","company":"?"},{"name":"成都四川阳光妇科医院","name_format":"阳光妇科医院","lat":30.711649,"lng":104.56289,"address":"淮口镇淮口镇淮州大道200号(金堂县淮口镇国土资源管理所西)","telephone":"028-84916120","adcode":"510121","province":"四川省","city":"成都市","district":"金堂县","key_person":"?","company":"?"},{"name":"成都玛利亚妇产医院","name_format":"成都玛丽亚妇产儿童医院(总院)","lat":30.683879,"lng":104.050639,"address":"一环路北一段125号","telephone":"028-65569999#028-87739999","adcode":"510106","province":"四川省","city":"成都市","district":"金牛区","key_person":"?","company":"?"},{"name":"成都丽人女子医院","name_format":"成都送子鸟不孕不育医院","lat":30.669948,"lng":104.06642,"address":"人民中路二段43号(远东百货对面)","telephone":"028-86612137#028-86611111","adcode":"510105","province":"四川省","city":"成都市","district":"青羊区","key_person":"?","company":"?"},{"name":"成都长征医院","name_format":"双流长征综合医院","lat":30.576419,"lng":103.909108,"address":"西安路四段122-134号","telephone":"028-85801120","adcode":"510122","province":"四川省","city":"成都市","district":"双流县","key_person":"?","company":"?"},{"name":"成都四川华美紫馨医学美容医院","name_format":"四川华美紫馨医学美容医院(二环路南三段)","lat":30.62021,"lng":104.0595,"address":"二环路南三段7号附1号","telephone":"028-62988882#028-62988875","adcode":"510107","province":"四川省","city":"成都市","district":"武侯区","key_person":"?","company":"?"},{"name":"成都蜀都乳腺医院","name_format":"蜀都乳腺医院","lat":30.672058,"lng":104.058425,"address":"八宝街130号(新城市广场斜对面)","telephone":"028-88155555","adcode":"510105","province":"四川省","city":"成都市","district":"青羊区","key_person":"?","company":"?"},{"name":"成都欧亚男科医院","name_format":"成都欧亚男科医院","lat":30.65357,"lng":104.041173,"address":"一环路西一段161号附8号","telephone":"028-66599999#028-87030666#18780290535","adcode":"510105","province":"四川省","city":"成都市","district":"青羊区","key_person":"?","company":"?"},{"name":"成都曙光男科医院","name_format":"曙光男科医院(青羊横街)","lat":30.658777,"lng":104.040329,"address":"青羊横街15号(一环路青羊宫十字路口)","telephone":"028-87792169","adcode":"510105","province":"四川省","city":"成都市","district":"青羊区","key_person":"?","company":"?"},{"name":"成都博爱医院","name_format":"成都博爱医院","lat":30.6534,"lng":104.087717,"address":"大慈寺路1号(东风大桥桥头)","telephone":"028-68999999#028-64656055","adcode":"510104","province":"四川省","city":"成都市","district":"锦江区","key_person":"?","company":"?"},{"name":"成都康新妇科医院","name_format":"成都市青羊区第二人民医院(鼓楼北四街)","lat":30.670354,"lng":104.076303,"address":"鼓楼北四街99号附3-4","telephone":"028-86933699#028-86913665","adcode":"510105","province":"四川省","city":"成都市","district":"青羊区","key_person":"?","company":"?"},{"name":"成都糖尿病专科医院","name_format":"都江堰糖尿病专科医院","lat":30.991332,"lng":103.628531,"address":"三官桥街16号","telephone":"028-87299526","adcode":"510181","province":"四川省","city":"成都市","district":"都江堰市","key_person":"?","company":"?"},{"name":"拉萨北大泌尿生殖医院","name_format":"西藏自治区拉萨市人民医院","lat":29.652483,"lng":91.141793,"address":"北京东路1号","telephone":"0891-6323302","adcode":"540102","province":"西藏自治区","city":"拉萨市","district":"城关区","key_person":"?","company":"?"},{"name":"拉萨西藏博爱医院","name_format":"博爱宠物医院(江苏东路)","lat":29.654836,"lng":91.143225,"address":"江苏东路50号附近","telephone":"?","adcode":"540102","province":"西藏自治区","city":"拉萨市","district":"城关区","key_person":"?","company":"?"},{"name":"无锡南站医院","name_format":"无锡南站医院","lat":31.562426,"lng":120.322486,"address":"塘南路97号无锡建国男子医院(近招商城路)","telephone":"0510-85015358#0510-85048480","adcode":"320211","province":"江苏省","city":"无锡市","district":"滨湖区","key_person":"?","company":"?"},{"name":"无锡江阴东方女子医院","name_format":"东方女子医院先锋村计划生育服务室","lat":31.897064,"lng":120.286189,"address":"绮山路88号","telephone":"?","adcode":"320281","province":"江苏省","city":"无锡市","district":"江阴市","key_person":"?","company":"?"},{"name":"无锡玛丽亚医院","name_format":"无锡玛丽亚医院","lat":31.578161,"lng":120.295141,"address":"解放西路323号","telephone":"0510-82792222#0510-82749666#4008288889","adcode":"320202","province":"江苏省","city":"无锡市","district":"崇安区","key_person":"?","company":"?"},{"name":"无锡嘉仕恒信医院","name_format":"无锡嘉仕恒信医院","lat":31.552289,"lng":120.263551,"address":"蠡溪路203号","telephone":"0510-88206666#0510-85011073","adcode":"320211","province":"江苏省","city":"无锡市","district":"滨湖区","key_person":"?","company":"?"},{"name":"无锡虹桥医院","name_format":"无锡虹桥医院","lat":31.560735,"lng":120.343744,"address":"长江北路150号(百安居对面)","telephone":"0510-82136888#18626081566#0510-81181600","adcode":"320211","province":"江苏省","city":"无锡市","district":"滨湖区","key_person":"?","company":"?"},{"name":"无锡宜兴武警医院","name_format":"武警医院(龙池路)","lat":31.35774,"lng":119.797871,"address":"宜城街道龙池路337号","telephone":"0510-87075011#0510-87075018","adcode":"320282","province":"江苏省","city":"无锡市","district":"宜兴市","key_person":"?","company":"?"},{"name":"无锡新区医院","name_format":"无锡新区凤凰医院","lat":31.550531,"lng":120.352629,"address":"长江北路20号","telephone":"0510-85229592#0510-85229597#0510-85227441#0510-85229602","adcode":"320211","province":"江苏省","city":"无锡市","district":"滨湖区","key_person":"?","company":"?"},{"name":"昆明华美美莱整形医院","name_format":"华美美莱美容医院","lat":25.049006,"lng":102.715026,"address":"青年路95号(红会医院斜对面)","telephone":"0871-66199999#0871-66151888","adcode":"530102","province":"云南省","city":"昆明市","district":"五华区","key_person":"?","company":"?"},{"name":"昆明仁爱医院","name_format":"云南仁爱医院","lat":25.066933,"lng":102.708668,"address":"龙泉路62号","telephone":"0871-65116111#0871-65186680#4000871616","adcode":"530102","province":"云南省","city":"昆明市","district":"五华区","key_person":"?","company":"?"},{"name":"昆明九州医院","name_format":"云南九洲医院","lat":25.060651,"lng":102.732482,"address":"白云路229号","telephone":"0871-66066888#4006645550","adcode":"530103","province":"云南省","city":"昆明市","district":"盘龙区","key_person":"?","company":"?"},{"name":"昆明云南玛莉亚医院","name_format":"云南玛莉亚医院","lat":25.054319,"lng":102.71817,"address":"环城北路169号","telephone":"0871-68069999#15198904644","adcode":"530103","province":"云南省","city":"昆明市","district":"盘龙区","key_person":"?","company":"?"},{"name":"昆明阳光医院","name_format":"阳光客栈(阳光医院东南)","lat":25.007932,"lng":102.681244,"address":"滇池路555号南亚风情第壹城","telephone":"?","adcode":"530112","province":"云南省","city":"昆明市","district":"西山区","key_person":"?","company":"?"},{"name":"昆明西昌路医院","name_format":"昆明医科大学第一附属医院","lat":25.042454,"lng":102.693052,"address":"西昌路295","telephone":"0871-65321934","adcode":"530102","province":"云南省","city":"昆明市","district":"五华区","key_person":"?","company":"?"},{"name":"晋中山西新阳光妇科医院","name_format":"新阳光妇科医院","lat":37.433015,"lng":112.581866,"address":"108国道与319省道交叉口南100米","telephone":"?","adcode":"140726","province":"山西省","city":"晋中市","district":"太谷县","key_person":"?","company":"?"},{"name":"晋城现代女子医院","name_format":"现代女子医院","lat":35.497491,"lng":112.849749,"address":"建设北路1489号(12层粉红大楼)","telephone":"0356-2023333","adcode":"140502","province":"山西省","city":"晋城市","district":"城区","key_person":"?","company":"?"},{"name":"晋城生殖医院","name_format":"晋城博大生殖医学专科医院","lat":35.494491,"lng":112.855026,"address":"泽州路1918号(泽州路七天酒店旁)","telephone":"0356-2022600#0356-2063999","adcode":"140502","province":"山西省","city":"晋城市","district":"城区","key_person":"?","company":"?"},{"name":"曲靖九州医院","name_format":"曲靖九洲医院","lat":25.48011,"lng":103.79956,"address":"花柯路1号","telephone":"0874-8965555#15911471152","adcode":"530302","province":"云南省","city":"曲靖市","district":"麒麟区","key_person":"?","company":"?"},{"name":"曲靖富源阳光医院","name_format":"阳光医院(胜境大道)","lat":25.65888,"lng":104.255288,"address":"王家屯社区","telephone":"0874-4625666","adcode":"530325","province":"云南省","city":"曲靖市","district":"富源县","key_person":"?","company":"?"},{"name":"杭州和睦医院","name_format":"杭州和睦医院","lat":30.309398,"lng":120.121624,"address":"莫干山路642号","telephone":"0571-88181000#0571-88180666","adcode":"330105","province":"浙江省","city":"杭州市","district":"拱墅区","key_person":"?","company":"?"},{"name":"杭州玛莉亚妇女医院","name_format":"玛莉亚妇产医院","lat":30.238261,"lng":120.193118,"address":"秋涛路300号","telephone":"0571-86521200#4008833120","adcode":"330102","province":"浙江省","city":"杭州市","district":"上城区","key_person":"?","company":"?"},{"name":"杭州虹桥医院","name_format":"杭州虹桥医院","lat":30.247645,"lng":120.18396,"address":"清泰街2号","telephone":"0571-87828888#0571-87292626","adcode":"330102","province":"浙江省","city":"杭州市","district":"上城区","key_person":"?","company":"?"},{"name":"杭州广仁医院","name_format":"杭州广仁医院","lat":30.281032,"lng":120.20785,"address":"新塘路327号","telephone":"0571-86993939#0571-86786666#4006396999","adcode":"330104","province":"浙江省","city":"杭州市","district":"江干区","key_person":"?","company":"?"},{"name":"杭州阿波罗男子医院","name_format":"杭州阿波罗男子医院","lat":30.270665,"lng":120.182318,"address":"体育场路58号","telephone":"0571-85093333","adcode":"330103","province":"浙江省","city":"杭州市","district":"下城区","key_person":"?","company":"?"},{"name":"杭州天目山医院","name_format":"杭州天目山医院","lat":30.264361,"lng":120.103014,"address":"古墩路6号","telephone":"0571-85129999#0571-85028055","adcode":"330106","province":"浙江省","city":"杭州市","district":"西湖区","key_person":"?","company":"?"},{"name":"杭州新东方妇产科医院","name_format":"新合作医药连锁(义桥大药房)","lat":30.066726,"lng":120.20923,"address":"东方路327号","telephone":"18905716255","adcode":"330109","province":"浙江省","city":"杭州市","district":"萧山区","key_person":"?","company":"?"},{"name":"杭州建国医院","name_format":"杭州市第三人民医院(泰地·万新大厦北)","lat":30.246343,"lng":120.178725,"address":"西湖大道38号","telephone":"0571-87823126","adcode":"330102","province":"浙江省","city":"杭州市","district":"上城区","key_person":"?","company":"?"},{"name":"杭州萧山九龙男科医院","name_format":"杭州萧山九龙男科医院","lat":30.148824,"lng":120.280279,"address":"育才路962号(汇宇花园旁)","telephone":"0571-82659999#4000913120","adcode":"330109","province":"浙江省","city":"杭州市","district":"萧山区","key_person":"?","company":"?"},{"name":"柳州福康医院","name_format":"柳州福康医院","lat":24.293659,"lng":109.438629,"address":"燎原路20-2号(白云小区旁)","telephone":"0772-3142999#0772-3112999","adcode":"450203","province":"广西壮族自治区","city":"柳州市","district":"鱼峰区","key_person":"?","company":"?"},{"name":"桂林广西阳光医院","name_format":"完美嫁衣尊爵婚纱馆","lat":25.27332,"lng":110.30517,"address":"穿山路1号(阳光医院旁)","telephone":"0773-5636210","adcode":"450305","province":"广西壮族自治区","city":"桂林市","district":"七星区","key_person":"?","company":"?"},{"name":"武汉华美医院","name_format":"武汉华美三级整形外科医院","lat":30.578649,"lng":114.256506,"address":"解放大道1049号蓝天大厦5层","telephone":"027-85268888#027-83330666#4000070606","adcode":"420104","province":"湖北省","city":"武汉市","district":"硚口区","key_person":"?","company":"?"},{"name":"武汉华仁医院","name_format":"韩式石锅拌饭(中南店)","lat":30.526883,"lng":114.347319,"address":"武珞路718号武汉华仁医院街道口南村40号","telephone":"15098082303","adcode":"420111","province":"湖北省","city":"武汉市","district":"洪山区","key_person":"?","company":"?"},{"name":"武汉阳光女子医院","name_format":"睫然不同女子形象会所(睫然不同武汉分店)","lat":30.505924,"lng":114.405976,"address":"光谷步行街世界城广场新尚都公寓8楼8025室(珞瑜路与珞雄路交汇处,临湖北中医院)","telephone":"13277099005#13377879690","adcode":"420111","province":"湖北省","city":"武汉市","district":"洪山区","key_person":"?","company":"?"},{"name":"武汉现代女子妇科医院","name_format":"武汉现代妇产医院","lat":30.569391,"lng":114.261489,"address":"中山大道89号","telephone":"027-83606686#027-68836999#027-68836888#027-68836686","adcode":"420104","province":"湖北省","city":"武汉市","district":"硚口区","key_person":"?","company":"?"},{"name":"武汉华夏医院","name_format":"武汉华夏医院","lat":30.531849,"lng":114.334046,"address":"丁字桥路2号","telephone":"027-87275566","adcode":"420106","province":"湖北省","city":"武汉市","district":"武昌区","key_person":"?","company":"?"},{"name":"毕节现代医院","name_format":"毕节现代医院","lat":27.301868,"lng":105.286964,"address":"砂石路1号","telephone":"0857-8635555","adcode":"520502","province":"贵州省","city":"毕节市","district":"七星关区","key_person":"?","company":"?"},{"name":"汕头妇产医院","name_format":"汕头妇产医院","lat":23.372189,"lng":116.731316,"address":"珠池路15号","telephone":"0754-86111111","adcode":"440507","province":"广东省","city":"汕头市","district":"龙湖区","key_person":"?","company":"?"},{"name":"江门福康医院","name_format":"江门市福康门诊部","lat":22.588535,"lng":113.081662,"address":"建设路49号江门市老汽车总站往广州方向500米","telephone":"0750-3270999#0750-3276181","adcode":"440703","province":"广东省","city":"江门市","district":"蓬江区","key_person":"?","company":"?"},{"name":"沈阳武警辽宁省总队医院","name_format":"武警医院","lat":41.86317,"lng":123.413899,"address":"黄河北大街黑山路3号","telephone":"024-86868659#024-86526638","adcode":"210114","province":"辽宁省","city":"沈阳市","district":"于洪区","key_person":"?","company":"?"},{"name":"沈阳北陵医院","name_format":"沈阳市第四人民医院停车场","lat":41.846689,"lng":123.441433,"address":"陵东街北陵东门135-8号沈阳市第四人民医院内","telephone":"?","adcode":"210105","province":"辽宁省","city":"沈阳市","district":"皇姑区","key_person":"?","company":"?"},{"name":"沈阳曙光男科医院","name_format":"沈阳曙光医院","lat":41.791337,"lng":123.413698,"address":"和平北大街122号(和平北大街与北二马路交汇口)","telephone":"024-62697777","adcode":"210102","province":"辽宁省","city":"沈阳市","district":"和平区","key_person":"?","company":"?"},{"name":"泉州南亚医院","name_format":"丰泽区停车场","lat":24.908605,"lng":118.609016,"address":"兰台路与田安北路交叉口西50米","telephone":"0595-22197666","adcode":"350503","province":"福建省","city":"泉州市","district":"丰泽区","key_person":"?","company":"?"},{"name":"泉州华美美莱整形医院","name_format":"华美整形美容","lat":24.904611,"lng":118.581491,"address":"新华南路27号(新华桥站)","telephone":"0595-28266666#0595-28888501","adcode":"350502","province":"福建省","city":"泉州市","district":"鲤城区","key_person":"?","company":"?"},{"name":"泉州坤如玛丽医院","name_format":"泉州丰泽玛丽医院","lat":24.90839,"lng":118.608848,"address":"田安北路305号","telephone":"0595-22871313#0595-22197666","adcode":"350503","province":"福建省","city":"泉州市","district":"丰泽区","key_person":"?","company":"?"},{"name":"泉州南亚华侨医院","name_format":"华侨医院(公交站)","lat":24.746206,"lng":118.639702,"address":"19路/C19路;石狮15路/C15路;石狮C03路;石狮C04路;石狮C10路;石狮T01路;石狮T07路;石狮T08路...","telephone":"?","adcode":"350581","province":"福建省","city":"泉州市","district":"石狮市","key_person":"?","company":"?"},{"name":"泉州新阳光女子医院","name_format":"泉州新阳光女子医院","lat":24.884095,"lng":118.598017,"address":"宝洲街与浦西路交叉口东北50米","telephone":"0595-28061111#0595-28966788","adcode":"350503","province":"福建省","city":"泉州市","district":"丰泽区","key_person":"?","company":"?"},{"name":"泰州海陵女子医院","name_format":"泰州海陵女子医院","lat":32.493522,"lng":119.902765,"address":"东进西路222号汽车西站旁","telephone":"0523-86566120","adcode":"321202","province":"江苏省","city":"泰州市","district":"海陵区","key_person":"?","company":"?"},{"name":"泰州市海陵医院","name_format":"泰州市人民医院(海陵南路)","lat":32.467453,"lng":119.919074,"address":"北院:江苏省泰州市海陵区迎春路210号,南院:江苏省泰州市海陵区海陵南路399号","telephone":"0523-86606333#0523-86606342","adcode":"321202","province":"江苏省","city":"泰州市","district":"海陵区","key_person":"?","company":"?"},{"name":"洛阳牡丹女子医院","name_format":"洛阳牡丹妇产医院","lat":34.654823,"lng":112.401039,"address":"南昌路1号","telephone":"0379-68611159#0379-65169999","adcode":"410305","province":"河南省","city":"洛阳市","district":"涧西区","key_person":"?","company":"?"},{"name":"洛阳解放军534医院","name_format":"中国人民解放军第五三四医院","lat":34.636285,"lng":112.385689,"address":"拥军路与瀛洲北路交汇处","telephone":"0379-61833120","adcode":"410305","province":"河南省","city":"洛阳市","district":"涧西区","key_person":"?","company":"?"},{"name":"济南真爱妇科医院","name_format":"济南真爱妇科医院","lat":36.657353,"lng":116.997558,"address":"大纬二路59号","telephone":"0531-86266966","adcode":"370103","province":"山东省","city":"济南市","district":"市中区","key_person":"?","company":"?"},{"name":"济南中医风湿病医院","name_format":"济南中医风湿病医院","lat":36.676838,"lng":117.014391,"address":"明湖西路111号","telephone":"0531-55589999#4008008881","adcode":"370105","province":"山东省","city":"济南市","district":"天桥区","key_person":"?","company":"?"},{"name":"济南协和肝病医院","name_format":"济南协和肝病医院","lat":36.691879,"lng":116.994648,"address":"济泺路112-1号","telephone":"0531-89006006#0531-85811138","adcode":"370105","province":"山东省","city":"济南市","district":"天桥区","key_person":"?","company":"?"},{"name":"济南白癜风医院","name_format":"山东济南白癜风医院","lat":36.67403,"lng":116.973501,"address":"堤口路143号","telephone":"0531-88753333#0531-55702177#4006913999","adcode":"370105","province":"山东省","city":"济南市","district":"天桥区","key_person":"?","company":"?"},{"name":"济南整形美容医院","name_format":"济南美容整形医院","lat":36.661098,"lng":117.027752,"address":"南门大街2号(泉城广场东临、泉城大酒店1层)","telephone":"0531-86078177#0531-86120677","adcode":"370102","province":"山东省","city":"济南市","district":"历下区","key_person":"?","company":"?"},{"name":"济南山东紫荆花医院","name_format":"紫荆花医院","lat":36.66696,"lng":117.064395,"address":"解放路17号(近荣军医院)","telephone":"0531-88384222#0531-88316981","adcode":"370102","province":"山东省","city":"济南市","district":"历下区","key_person":"?","company":"?"},{"name":"济南中研皮肤病医院","name_format":"济南中研皮肤病医院","lat":36.657076,"lng":116.932549,"address":"经六路904号(槐荫区法院旁)","telephone":"0531-62337888#0531-55625813#15165002102","adcode":"370104","province":"山东省","city":"济南市","district":"槐荫区","key_person":"?","company":"?"},{"name":"济南和谐妇科医院","name_format":"济南和谐妇科医院","lat":36.672448,"lng":117.035765,"address":"黑虎泉北路61号(老东门附近)","telephone":"0531-66660197#0531-66660198","adcode":"370102","province":"山东省","city":"济南市","district":"历下区","key_person":"?","company":"?"},{"name":"济南九龙泌尿专科医院","name_format":"济南九龙泌尿专科医院","lat":36.686227,"lng":117.032489,"address":"北园大街349号","telephone":"0531-88982288#0531-66722222","adcode":"370105","province":"山东省","city":"济南市","district":"天桥区","key_person":"?","company":"?"},{"name":"济南哮喘病医院","name_format":"济南哮喘病医院","lat":36.598531,"lng":117.002619,"address":"英雄山路412号(二环南路口东北侧)","telephone":"0531-66621115#0531-66621111#4006053105","adcode":"370103","province":"山东省","city":"济南市","district":"市中区","key_person":"?","company":"?"},{"name":"济南复元康复医院","name_format":"济南复元康复医院","lat":36.701133,"lng":117.088674,"address":"祝舜路869号","telephone":"0531-82621111#4000120170","adcode":"370112","province":"山东省","city":"济南市","district":"历城区","key_person":"?","company":"?"},{"name":"济南美莱整形医院","name_format":"济南美莱整形美容","lat":36.654653,"lng":117.048806,"address":"文化东路76号(省杂技团西50米路南)省杂技团斜对面","telephone":"0531-66598555#0531-66599555","adcode":"370102","province":"山东省","city":"济南市","district":"历下区","key_person":"?","company":"?"},{"name":"济南血液病医院","name_format":"济南血液病医院","lat":36.70098,"lng":117.088413,"address":"祝舜路969号(上海花园北门对过)","telephone":"0531-86953333#4006780120","adcode":"370112","province":"山东省","city":"济南市","district":"历城区","key_person":"?","company":"?"},{"name":"济南神康医院","name_format":"济南神康医院","lat":36.697636,"lng":117.15348,"address":"工业南路41号","telephone":"0531-88190909","adcode":"370112","province":"山东省","city":"济南市","district":"历城区","key_person":"?","company":"?"},{"name":"济南海峡美容整形医院","name_format":"济南海峡美容整形医院","lat":36.682997,"lng":117.074009,"address":"二环东路2828号(省图书馆北邻)","telephone":"0531-58710866#0531-58819999","adcode":"370112","province":"山东省","city":"济南市","district":"历城区","key_person":"?","company":"?"},{"name":"济南中医肝病医院","name_format":"济南中医肝病医院","lat":36.683709,"lng":116.967897,"address":"无影山中路101号(天桥区法院对面)","telephone":"0531-88252222#0531-89829999","adcode":"370105","province":"山东省","city":"济南市","district":"天桥区","key_person":"?","company":"?"},{"name":"济南中医白癜风医院","name_format":"济南中医白癜风医院","lat":36.684234,"lng":117.008329,"address":"北园大街546-1","telephone":"0531-66710000#4006633123","adcode":"370105","province":"山东省","city":"济南市","district":"天桥区","key_person":"?","company":"?"},{"name":"济南妇科医院","name_format":"济南妇科医院","lat":36.648964,"lng":116.992233,"address":"经十路21677号","telephone":"0531-80969918#0531-80969999","adcode":"370103","province":"山东省","city":"济南市","district":"市中区","key_person":"?","company":"?"},{"name":"济南肾病医院","name_format":"济南肾病医院","lat":36.694273,"lng":116.946246,"address":"小清河北路西首新沙路1号","telephone":"0531-55691111#0531-55691122#4000531222","adcode":"370104","province":"山东省","city":"济南市","district":"槐荫区","key_person":"?","company":"?"},{"name":"济南阳光女子医院","name_format":"山东济南阳光女子医院","lat":36.659355,"lng":117.016941,"address":"泺源大街168号","telephone":"0531-86900055#0531-86900066#0531-86928282","adcode":"370102","province":"山东省","city":"济南市","district":"历下区","key_person":"?","company":"?"},{"name":"济南胃肠病医院","name_format":"济南胃肠病医院","lat":36.685768,"lng":117.033561,"address":"北园大街328-1号","telephone":"0531-66676999#0531-85897936","adcode":"370105","province":"山东省","city":"济南市","district":"天桥区","key_person":"?","company":"?"},{"name":"济南中医不孕不育医院","name_format":"济南中医不孕不育医院","lat":36.656937,"lng":116.939478,"address":"经六路延长线段北东路21号","telephone":"0531-66779999#0531-81612602#4006566120","adcode":"370104","province":"山东省","city":"济南市","district":"槐荫区","key_person":"?","company":"?"},{"name":"济南山东红十字会医院","name_format":"山东红十字会医院","lat":36.641301,"lng":116.997515,"address":"英雄山路16-2号","telephone":"0531-81765555#0531-82866666","adcode":"370103","province":"山东省","city":"济南市","district":"市中区","key_person":"?","company":"?"},{"name":"济南五洲医院","name_format":"济南五洲医院","lat":36.690327,"lng":116.976694,"address":"无影山路21-2号","telephone":"0531-85861199#0531-85909019","adcode":"370105","province":"山东省","city":"济南市","district":"天桥区","key_person":"?","company":"?"},{"name":"济南中山肝病医院","name_format":"济南中山肝病医院","lat":36.662132,"lng":117.065183,"address":"燕子山路10-1号","telephone":"0531-85922222#0531-88558000","adcode":"370102","province":"山东省","city":"济南市","district":"历下区","key_person":"?","company":"?"},{"name":"济南圣玛利亚妇产医院","name_format":"圣玛丽亚妇产医院","lat":36.597857,"lng":117.012661,"address":"二环南路1701号","telephone":"0531-58696666","adcode":"370103","province":"山东省","city":"济南市","district":"市中区","key_person":"?","company":"?"},{"name":"济南中德骨科医院","name_format":"济南中德骨科医院(济齐路)","lat":36.678137,"lng":116.956786,"address":"济齐路22号","telephone":"0531-85555120#0531-68690000","adcode":"370105","province":"山东省","city":"济南市","district":"天桥区","key_person":"?","company":"?"},{"name":"济南乳腺医院","name_format":"济南乳腺病医院","lat":36.672849,"lng":117.01328,"address":"少年路7号","telephone":"0531-66677777#0531-67883376#18660816062","adcode":"370105","province":"山东省","city":"济南市","district":"天桥区","key_person":"?","company":"?"},{"name":"济南华夏医院","name_format":"济南华夏医院(西门)","lat":36.68421,"lng":116.999412,"address":"北园大街598-1号","telephone":"?","adcode":"370105","province":"山东省","city":"济南市","district":"天桥区","key_person":"?","company":"?"},{"name":"济南一零六医院","name_format":"济南106医院","lat":36.650401,"lng":116.913388,"address":"经十西路28722号","telephone":"0531-69922232#0531-87296666","adcode":"370104","province":"山东省","city":"济南市","district":"槐荫区","key_person":"?","company":"?"},{"name":"济南中医静脉曲张医院","name_format":"济南中医静脉曲张医院","lat":36.674801,"lng":117.086576,"address":"工业南路93号","telephone":"0531-86972999#0531-88193101#4000900120","adcode":"370102","province":"山东省","city":"济南市","district":"历下区","key_person":"?","company":"?"},{"name":"济南六一天使儿童医院","name_format":"济南六一天使儿童医院","lat":36.676994,"lng":117.072903,"address":"二环东路3399-1号(百花公园东门北邻)","telephone":"0531-88786161","adcode":"370112","province":"山东省","city":"济南市","district":"历城区","key_person":"?","company":"?"},{"name":"济南山东东方男科医院","name_format":"山东东方男科医院","lat":36.618232,"lng":117.00461,"address":"英雄山路162号","telephone":"0531-82988882#0531-82989992","adcode":"370103","province":"山东省","city":"济南市","district":"市中区","key_person":"?","company":"?"},{"name":"济南泉城医院","name_format":"泉城医院","lat":36.666703,"lng":117.070782,"address":"解放路3号","telephone":"0531-88193352#0531-82022222","adcode":"370102","province":"山东省","city":"济南市","district":"历下区","key_person":"?","company":"?"},{"name":"济南骨科医院","name_format":"济南骨科医院","lat":36.635708,"lng":116.997817,"address":"英雄山路36-1号","telephone":"0531-67966666#4000107799","adcode":"370103","province":"山东省","city":"济南市","district":"市中区","key_person":"?","company":"?"},{"name":"济南现代皮肤病医院","name_format":"济南现代皮肤病医院","lat":36.64808,"lng":117.046101,"address":"健康路11号","telephone":"0531-58816666#0531-86985688#4006123696","adcode":"370102","province":"山东省","city":"济南市","district":"历下区","key_person":"?","company":"?"},{"name":"济南中医精神病医院","name_format":"济南中医精神专科医院","lat":36.67269,"lng":117.072618,"address":"二环东路3889号","telephone":"0531-68855555#0531-86859999","adcode":"370112","province":"山东省","city":"济南市","district":"历城区","key_person":"?","company":"?"},{"name":"济南肛肠医院","name_format":"济南肛肠医院","lat":36.622952,"lng":117.000582,"address":"英雄山路87","telephone":"0531-82988881#0531-82988882#0531-82979999","adcode":"370103","province":"山东省","city":"济南市","district":"市中区","key_person":"?","company":"?"},{"name":"济南集美美容整形医院","name_format":"济南集美美容医院","lat":36.66093,"lng":117.0347,"address":"泺源大街21号济南集美美容医院","telephone":"0531-86039999#4008058556","adcode":"370102","province":"山东省","city":"济南市","district":"历下区","key_person":"?","company":"?"},{"name":"济南青华不孕不育医院","name_format":"济南青华医院","lat":36.643467,"lng":116.997603,"address":"英雄山路10-4号","telephone":"0531-83189999#4006400989","adcode":"370103","province":"山东省","city":"济南市","district":"市中区","key_person":"?","company":"?"},{"name":"济南股骨头医院","name_format":"济南股骨头医院","lat":36.644029,"lng":116.934086,"address":"段店南路124号","telephone":"0531-87189799#0531-87901111#4000531781","adcode":"370103","province":"山东省","city":"济南市","district":"市中区","key_person":"?","company":"?"},{"name":"济南耳鼻喉医院","name_format":"济南耳鼻喉医院","lat":36.618145,"lng":117.00501,"address":"英雄山路162号","telephone":"0531-83178888","adcode":"370103","province":"山东省","city":"济南市","district":"市中区","key_person":"?","company":"?"},{"name":"济南银屑病医院","name_format":"济南银屑病医院","lat":36.711763,"lng":117.083166,"address":"工业北路223-1号","telephone":"0531-88012345#0531-68817120","adcode":"370112","province":"山东省","city":"济南市","district":"历城区","key_person":"?","company":"?"},{"name":"海口武警海南总队医院妇科中心","name_format":"武警海南省边防总队医院妇科诊疗中心","lat":20.049838,"lng":110.332302,"address":"海甸岛三西路路尾(海南大学南校门往前300米)","telephone":"0898-65818120","adcode":"460108","province":"海南省","city":"海口市","district":"美兰区","key_person":"?","company":"?"},{"name":"淄博女子医院","name_format":"女子医院(公交站)","lat":36.820847,"lng":118.0466,"address":"2路;90路内环;90路外环;136路;138路环城购物专线内环;138路环城购物专线外环;158路","telephone":"?","adcode":"370303","province":"山东省","city":"淄博市","district":"张店区","key_person":"?","company":"?"},{"name":"淮北阳光心理院","name_format":"阳光心理医院","lat":33.919053,"lng":116.794051,"address":"孟山中路寇湾新村(东门)附近","telephone":"0561-3118877","adcode":"340603","province":"安徽省","city":"淮北市","district":"相山区","key_person":"?","company":"?"},{"name":"淮北女子医院","name_format":"女子友好医院(公交站)","lat":33.966602,"lng":116.793617,"address":"118路/118W路","telephone":"?","adcode":"340603","province":"安徽省","city":"淮北市","district":"相山区","key_person":"?","company":"?"},{"name":"淮安中山医院","name_format":"中山医院(翔宇大道)","lat":33.602121,"lng":119.043152,"address":"健康东路7号(万达广场对面)","telephone":"0517-83776811#0517-83776804","adcode":"320802","province":"江苏省","city":"淮安市","district":"清河区","key_person":"?","company":"?"},{"name":"淮安生殖医院","name_format":"淮安生殖医院","lat":33.613725,"lng":119.008748,"address":"北京北路27-1号","telephone":"0517-83654599#0517-83654999","adcode":"320802","province":"江苏省","city":"淮安市","district":"清河区","key_person":"?","company":"?"},{"name":"深圳美莱美容医院","name_format":"深圳美莱医疗美容医院","lat":22.541225,"lng":114.09049,"address":"深南中路2044号(兴华宾馆西行200米)","telephone":"0755-88995888","adcode":"440304","province":"广东省","city":"深圳市","district":"福田区","key_person":"?","company":"?"},{"name":"深圳仁爱医院","name_format":"深圳仁爱医院","lat":22.520267,"lng":114.041211,"address":"金地四路2号","telephone":"0755-88308111#0755-88308188","adcode":"440304","province":"广东省","city":"深圳市","district":"福田区","key_person":"?","company":"?"},{"name":"深圳华南妇科医院","name_format":"深圳华南妇科医院","lat":22.693126,"lng":114.345218,"address":"深汕公路224号(坪山电子城旁)","telephone":"0755-84606976","adcode":"440307","province":"广东省","city":"深圳市","district":"龙岗区","key_person":"?","company":"?"},{"name":"深圳和美妇儿科医院","name_format":"深圳和美妇儿科医院","lat":22.541057,"lng":113.922113,"address":"深南大道12018号","telephone":"0755-33919133#0755-33391333","adcode":"440305","province":"广东省","city":"深圳市","district":"南山区","key_person":"?","company":"?"},{"name":"深圳曙光医院","name_format":"深圳曙光医院","lat":22.546976,"lng":114.107701,"address":"红宝路38号","telephone":"0755-82473398","adcode":"440303","province":"广东省","city":"深圳市","district":"罗湖区","key_person":"?","company":"?"},{"name":"深圳阳光医院","name_format":"深圳阳光整形美容医院","lat":22.540299,"lng":114.111963,"address":"宝安南路1048号","telephone":"0755-25563998","adcode":"440303","province":"广东省","city":"深圳市","district":"罗湖区","key_person":"?","company":"?"},{"name":"深圳博爱医院","name_format":"深圳博爱医院","lat":22.552201,"lng":114.104969,"address":"红岭中路2056号","telephone":"0755-25890396#0755-25869688","adcode":"440303","province":"广东省","city":"深圳市","district":"罗湖区","key_person":"?","company":"?"},{"name":"深圳雪象医院","name_format":"深圳雪象医院","lat":22.651396,"lng":114.078581,"address":"雪岗路1136号","telephone":"0755-61260222#0755-89707061#4009916120","adcode":"440307","province":"广东省","city":"深圳市","district":"龙岗区","key_person":"?","company":"?"},{"name":"深圳健安医院","name_format":"深圳健安医院","lat":22.629059,"lng":114.038012,"address":"沙吓工业区169号","telephone":"0755-28196620#0755-89709546","adcode":"440306","province":"广东省","city":"深圳市","district":"宝安区","key_person":"?","company":"?"},{"name":"深圳健丰医院","name_format":"深圳健丰医院","lat":22.700744,"lng":114.33062,"address":"高思特工业区(坪山长途汽车站旁)","telephone":"0755-84648333","adcode":"440307","province":"广东省","city":"深圳市","district":"龙岗区","key_person":"?","company":"?"},{"name":"深圳凤凰医院","name_format":"福永人民医院凤凰分院","lat":22.691368,"lng":113.833887,"address":"凤凰山大道","telephone":"?","adcode":"440306","province":"广东省","city":"深圳市","district":"宝安区","key_person":"?","company":"?"},{"name":"深圳韩美医疗美容医院","name_format":"深圳韩美尔医疗美容门诊部","lat":22.556937,"lng":114.10512,"address":"中民时代广场A座2层","telephone":"0755-25892309#13652365617","adcode":"440303","province":"广东省","city":"深圳市","district":"罗湖区","key_person":"?","company":"?"},{"name":"深圳仁康医院","name_format":"深圳仁康医院","lat":22.584808,"lng":114.118218,"address":"草埔吓屋村8号综合楼","telephone":"0755-25679833#0755-25481365","adcode":"440303","province":"广东省","city":"深圳市","district":"罗湖区","key_person":"?","company":"?"},{"name":"深圳罗岗医院","name_format":"深圳罗岗医院","lat":22.595937,"lng":114.125982,"address":"罗岗路76号","telephone":"0755-89708040","adcode":"440307","province":"广东省","city":"深圳市","district":"龙岗区","key_person":"?","company":"?"},{"name":"深圳国瑞泌尿外科医院","name_format":"国瑞印刷","lat":22.632687,"lng":113.950292,"address":"麻磡南路83号","telephone":"?","adcode":"440305","province":"广东省","city":"深圳市","district":"南山区","key_person":"?","company":"?"},{"name":"深圳福华中西医结合医院","name_format":"深圳福华中西医结合医院","lat":22.537469,"lng":114.084298,"address":"福华路3号","telephone":"0755-83337088#0755-88297667#4008338339","adcode":"440304","province":"广东省","city":"深圳市","district":"福田区","key_person":"?","company":"?"},{"name":"深圳龙济医院","name_format":"深圳龙济医院","lat":22.658409,"lng":114.012545,"address":"龙观西路342号","telephone":"0755-28111000#0755-29111999","adcode":"440306","province":"广东省","city":"深圳市","district":"宝安区","key_person":"?","company":"?"},{"name":"深圳同仁妇科医院","name_format":"深圳同仁妇科医院","lat":22.575374,"lng":113.871841,"address":"宝安大道3186号","telephone":"0755-23462210#0755-27909999","adcode":"440306","province":"广东省","city":"深圳市","district":"宝安区","key_person":"?","company":"?"},{"name":"深圳远东妇儿科医院","name_format":"深圳远东妇儿科医院","lat":22.543538,"lng":114.123901,"address":"深南东路2097号","telephone":"0755-88808888","adcode":"440303","province":"广东省","city":"深圳市","district":"罗湖区","key_person":"?","company":"?"},{"name":"温州爱尔五官科医院","name_format":"长庚耳鼻喉医院","lat":27.989008,"lng":120.728257,"address":"机场大道5125号","telephone":"0577-56815681#0577-56580313#4006703120","adcode":"330303","province":"浙江省","city":"温州市","district":"龙湾区","key_person":"?","company":"?"},{"name":"温州建国医院","name_format":"温州建国医院","lat":27.982036,"lng":120.665612,"address":"温州大道洛河路2号","telephone":"0577-56811996#0577-56889999","adcode":"330302","province":"浙江省","city":"温州市","district":"鹿城区","key_person":"?","company":"?"},{"name":"温州红旗医院","name_format":"红旗医院","lat":28.018798,"lng":120.647296,"address":"百里西路198号","telephone":"?","adcode":"330302","province":"浙江省","city":"温州市","district":"鹿城区","key_person":"?","company":"?"},{"name":"温州长征医院","name_format":"瑞安廖金銮妇科诊所","lat":27.788595,"lng":120.58488,"address":"沿江路与长征路交叉口西北150米","telephone":"?","adcode":"330381","province":"浙江省","city":"温州市","district":"瑞安市","key_person":"?","company":"?"},{"name":"温州协和医院","name_format":"北白象协和医院","lat":28.035187,"lng":120.861384,"address":"北白象镇白象大道338号东方大厦斜对面","telephone":"0577-62968009#13819766808","adcode":"330382","province":"浙江省","city":"温州市","district":"乐清市","key_person":"?","company":"?"},{"name":"湘潭阳光眼科中心","name_format":"湖南湘潭阳光眼科中心","lat":27.863584,"lng":112.912297,"address":"和平路186号(市中心医院对面)","telephone":"0731-58220666","adcode":"430302","province":"湖南省","city":"湘潭市","district":"雨湖区","key_person":"?","company":"?"},{"name":"漯河东方医院","name_format":"漯河东方医院","lat":33.577934,"lng":114.040652,"address":"滨河路447号","telephone":"0395-2912000#0395-2118333","adcode":"411102","province":"河南省","city":"漯河市","district":"源汇区","key_person":"?","company":"?"},{"name":"潍坊博爱医院","name_format":"诸城博爱医院","lat":35.989838,"lng":119.41944,"address":"兴华东路39号","telephone":"4000120610","adcode":"370782","province":"山东省","city":"潍坊市","district":"诸城市","key_person":"?","company":"?"},{"name":"潍坊长安医院","name_format":"潍坊长安男科医院","lat":36.712341,"lng":119.121897,"address":"东风东街288号","telephone":"0536-2222120#0536-2703333","adcode":"370705","province":"山东省","city":"潍坊市","district":"奎文区","key_person":"?","company":"?"},{"name":"潍坊和平医院","name_format":"潍坊和平妇科医院","lat":36.713086,"lng":119.152458,"address":"东风东街209号","telephone":"0536-8592999#0536-8891969","adcode":"370705","province":"山东省","city":"潍坊市","district":"奎文区","key_person":"?","company":"?"},{"name":"玉溪九州医院","name_format":"玉溪九洲医院","lat":24.353543,"lng":102.537622,"address":"明珠路12号(高快客运站旁0)","telephone":"0877-6106666#0877-6103567","adcode":"530402","province":"云南省","city":"玉溪市","district":"红塔区","key_person":"?","company":"?"},{"name":"珠海惠爱医院","name_format":"惠爱医院自行车租赁点","lat":22.226257,"lng":113.560501,"address":"联安路22号附近","telephone":"?","adcode":"440402","province":"广东省","city":"珠海市","district":"香洲区","key_person":"?","company":"?"},{"name":"珠海九龙医院","name_format":"珠海九龙医院","lat":22.246692,"lng":113.57369,"address":"吉大九洲大道中1004号(吉大农行旁)","telephone":"0756-3296666#0756-3296689","adcode":"440402","province":"广东省","city":"珠海市","district":"香洲区","key_person":"?","company":"?"},{"name":"珠海阳光医院","name_format":"珠海阳光医院","lat":22.249431,"lng":113.587075,"address":"吉大九洲大道东1118号","telephone":"0756-3339999#4001140756","adcode":"440402","province":"广东省","city":"珠海市","district":"香洲区","key_person":"?","company":"?"},{"name":"盐城协和康复医院","name_format":"协和医院(建军路)","lat":33.385826,"lng":120.151802,"address":"建军东路66","telephone":"0515-88222567#0515-80886678#4000720120","adcode":"320902","province":"江苏省","city":"盐城市","district":"亭湖区","key_person":"?","company":"?"},{"name":"石家庄美联臣医疗美容医院","name_format":"石家庄美联臣医疗美容医院","lat":38.034894,"lng":114.486296,"address":"裕华西路8号","telephone":"0311-85277777","adcode":"130104","province":"河北省","city":"石家庄市","district":"桥西区","key_person":"?","company":"?"},{"name":"福州左海医院","name_format":"福州左海医院","lat":26.100765,"lng":119.288307,"address":"铜盘路21-3号","telephone":"0591-87836222#0591-87836111","adcode":"350102","province":"福建省","city":"福州市","district":"鼓楼区","key_person":"?","company":"?"},{"name":"福州誉盛医院","name_format":"福州誉盛医院","lat":26.073061,"lng":119.359351,"address":"福光路102-114号","telephone":"0591-83968111#0591-88056666","adcode":"350111","province":"福建省","city":"福州市","district":"晋安区","key_person":"?","company":"?"},{"name":"福州东南女子医院","name_format":"福州东南妇幼医院","lat":26.055394,"lng":119.33988,"address":"光明路1号","telephone":"0591-83827951#0591-22969999","adcode":"350103","province":"福建省","city":"福州市","district":"台江区","key_person":"?","company":"?"},{"name":"福清阳光女子医院","name_format":"福清阳光医院","lat":25.720968,"lng":119.386795,"address":"玉屏街道田乾路46号","telephone":"0591-85878966","adcode":"350181","province":"福建省","city":"福州市","district":"福清市","key_person":"?","company":"?"},{"name":"福州现代妇产医院","name_format":"福州现代妇产医院","lat":26.108603,"lng":119.295,"address":"北环西路66号","telephone":"0591-88501660#0591-88211111","adcode":"350102","province":"福建省","city":"福州市","district":"鼓楼区","key_person":"?","company":"?"},{"name":"福州福兴妇产医院","name_format":"福兴妇产医院","lat":26.072434,"lng":119.353591,"address":"福马路480号","telephone":"0591-88055555#0591-88055116","adcode":"350111","province":"福建省","city":"福州市","district":"晋安区","key_person":"?","company":"?"},{"name":"福州鼓楼医院","name_format":"福州鼓楼医院","lat":26.08053,"lng":119.310443,"address":"五一北路123号(鼓楼交警支队旁)","telephone":"0591-87619721#0591-87677120#4008990333","adcode":"350102","province":"福建省","city":"福州市","district":"鼓楼区","key_person":"?","company":"?"},{"name":"福州华美美莱整形医院","name_format":"福州美莱华美美容医院(塔头路)","lat":26.089027,"lng":119.32196,"address":"岳峰镇塔头路177号","telephone":"0591-22966666","adcode":"350111","province":"福建省","city":"福州市","district":"晋安区","key_person":"?","company":"?"},{"name":"聊城东昌府三医院","name_format":"聊城市第三人民医院","lat":36.469554,"lng":115.97792,"address":"卫育路62号","telephone":"0635-8383101#0635-8383100","adcode":"371502","province":"山东省","city":"聊城市","district":"东昌府区","key_person":"?","company":"?"},{"name":"肇庆福康医院","name_format":"肇庆福康医院","lat":23.055888,"lng":112.492036,"address":"前进北路1号(武警支队旁)","telephone":"0758-2758558","adcode":"441202","province":"广东省","city":"肇庆市","district":"端州区","key_person":"?","company":"?"},{"name":"舟山现代妇科医院","name_format":"舟山现代妇科医院","lat":30.014042,"lng":122.103546,"address":"环城西路113号","telephone":"0580-2261111#0580-8232222","adcode":"330902","province":"浙江省","city":"舟山市","district":"定海区","key_person":"?","company":"?"},{"name":"舟山市千岛医院妇产科","name_format":"舟山市社区卫生服务指导中心","lat":29.991746,"lng":122.2032,"address":"千岛路173号附近","telephone":"?","adcode":"330902","province":"浙江省","city":"舟山市","district":"定海区","key_person":"?","company":"?"},{"name":"芜湖阳光眼科医院","name_format":"永红村卫生室(阳光新城小区东)","lat":31.14383,"lng":118.611902,"address":"经东路南50米","telephone":"?","adcode":"340221","province":"安徽省","city":"芜湖市","district":"芜湖县","key_person":"?","company":"?"},{"name":"芜湖丹凤朝阳妇科医院","name_format":"中共芜湖丹凤朝阳女子医院支部委员会","lat":31.360811,"lng":118.369642,"address":"赤铸山西路86号","telephone":"?","adcode":"340202","province":"安徽省","city":"芜湖市","district":"镜湖区","key_person":"?","company":"?"},{"name":"苏州华美美莱整形医院","name_format":"苏州美莱美容医院","lat":31.303063,"lng":120.594304,"address":"干将西路889号","telephone":"0512-88169999#4008816499","adcode":"320508","province":"江苏省","city":"苏州市","district":"姑苏区","key_person":"?","company":"?"},{"name":"苏州圣爱医院","name_format":"苏州圣爱医院","lat":31.297108,"lng":120.55871,"address":"新区金山路36号","telephone":"0512-68080101#0512-68081010","adcode":"320505","province":"江苏省","city":"苏州市","district":"虎丘区","key_person":"?","company":"?"},{"name":"苏州东吴医院","name_format":"苏州东吴中西医结合医院","lat":31.280094,"lng":120.598805,"address":"桐泾南路81号(近新康花园)","telephone":"0512-68120120","adcode":"320508","province":"江苏省","city":"苏州市","district":"姑苏区","key_person":"?","company":"?"},{"name":"荆州华康医院","name_format":"荆州市华康医院","lat":30.345266,"lng":112.220748,"address":"江津西路439号(荆州古城东门外100米)","telephone":"0716-8516000","adcode":"421003","province":"湖北省","city":"荆州市","district":"荆州区","key_person":"?","company":"?"},{"name":"莆田盛兴医院","name_format":"莆田大学附属盛兴医院","lat":25.310517,"lng":119.103006,"address":"笏石镇顶城路1368号","telephone":"0594-5955555#0594-5566666#4009180606","adcode":"350305","province":"福建省","city":"莆田市","district":"秀屿区","key_person":"?","company":"?"},{"name":"莆田丽人妇科医院","name_format":"莆田丽人妇科医院","lat":25.424626,"lng":119.004465,"address":"莆阳路嘉新商业城B1座","telephone":"0594-2827283#0594-2224222","adcode":"350302","province":"福建省","city":"莆田市","district":"城厢区","key_person":"?","company":"?"},{"name":"莆田中西医肛肠医院","name_format":"莆田肛泰中西医结合医院","lat":25.428891,"lng":119.01276,"address":"龙华街道太平居委会胜利南街230弄9号","telephone":"0594-7590166#0594-2205199","adcode":"350302","province":"福建省","city":"莆田市","district":"城厢区","key_person":"?","company":"?"},{"name":"莆田口腔医院","name_format":"莆田口腔医院","lat":25.438853,"lng":119.01487,"address":"兴安路15号","telephone":"0594-2298866","adcode":"350302","province":"福建省","city":"莆田市","district":"城厢区","key_person":"?","company":"?"},{"name":"萍乡市新世纪泌尿专科医院","name_format":"萍乡新世纪泌尿专科医院","lat":27.63232,"lng":113.861117,"address":"康庄路2号(富丽大厦)","telephone":"?","adcode":"360302","province":"江西省","city":"萍乡市","district":"安源区","key_person":"?","company":"?"},{"name":"萍乡妇科医院","name_format":"萍乡阳光妇科医院","lat":27.647855,"lng":113.851585,"address":"滨河东路516号鹅湖小区秋收起义广场北侧","telephone":"?","adcode":"360302","province":"江西省","city":"萍乡市","district":"安源区","key_person":"?","company":"?"},{"name":"蚌埠解放军一二三中心医院","name_format":"中国人民解放军一二三中心医院(肿瘤科)","lat":32.90495,"lng":117.335001,"address":"燕山路1052号","telephone":"?","adcode":"340304","province":"安徽省","city":"蚌埠市","district":"禹会区","key_person":"?","company":"?"},{"name":"襄阳市第五人民医院","name_format":"襄阳市第五人民医院","lat":32.041766,"lng":112.161403,"address":"东风路66号","telephone":"0710-3231198#0710-3455563","adcode":"420606","province":"湖北省","city":"襄阳市","district":"樊城区","key_person":"?","company":"?"},{"name":"西安阳光医院","name_format":"西安阳光宾馆(高新店)","lat":34.232285,"lng":108.910665,"address":"光华路72号(导航医院隔壁)","telephone":"029-88219266","adcode":"610113","province":"陕西省","city":"西安市","district":"雁塔区","key_person":"?","company":"?"},{"name":"西安武警陕西总队医院","name_format":"中国人民武装警察部队陕西省总队医院","lat":34.237041,"lng":108.985486,"address":"南二环东段88号","telephone":"029-89390081#029-82223616","adcode":"610113","province":"陕西省","city":"西安市","district":"雁塔区","key_person":"?","company":"?"},{"name":"西安俪人医院","name_format":"西安俪人医院","lat":34.229767,"lng":108.906219,"address":"科技路30号","telephone":"029-88850059#029-88635555","adcode":"610113","province":"陕西省","city":"西安市","district":"雁塔区","key_person":"?","company":"?"},{"name":"许昌新时代妇科医院","name_format":"许昌新时代妇科医院","lat":34.016703,"lng":113.817391,"address":"解放路中段","telephone":"?","adcode":"411002","province":"河南省","city":"许昌市","district":"魏都区","key_person":"?","company":"?"},{"name":"许昌凤凰医院","name_format":"凤凰医院","lat":34.022918,"lng":113.820693,"address":"颖昌路926号","telephone":"0374-3261113#0374-3261111","adcode":"411002","province":"河南省","city":"许昌市","district":"魏都区","key_person":"?","company":"?"},{"name":"许昌中山医院","name_format":"中山医院","lat":34.028424,"lng":113.823809,"address":"西大街16号","telephone":"0374-2158889#0374-2158888","adcode":"411002","province":"河南省","city":"许昌市","district":"魏都区","key_person":"?","company":"?"},{"name":"贵阳和美妇产医院","name_format":"贵阳和美妇产医院","lat":26.530663,"lng":106.693067,"address":"四方河路10号(山水黔城斜对面)","telephone":"0851-88332065#0851-88332003","adcode":"520102","province":"贵州省","city":"贵阳市","district":"南明区","key_person":"?","company":"?"},{"name":"贵阳长江医院","name_format":"贵阳长江医院","lat":26.582736,"lng":106.711585,"address":"中华中路137号","telephone":"0851-85814266#0851-85840000","adcode":"520103","province":"贵州省","city":"贵阳市","district":"云岩区","key_person":"?","company":"?"},{"name":"贵阳和谐阳光医院","name_format":"中国·贵阳和谐阳光医院","lat":26.58143,"lng":106.667719,"address":"三桥南路42号","telephone":"0851-84822111#18585865184","adcode":"520103","province":"贵州省","city":"贵阳市","district":"云岩区","key_person":"?","company":"?"},{"name":"贵阳五官中心","name_format":"诚信口腔五官","lat":26.547882,"lng":106.68791,"address":"花溪大道北段富士达旁","telephone":"15185008948","adcode":"520102","province":"贵州省","city":"贵阳市","district":"南明区","key_person":"?","company":"?"},{"name":"贵阳现代女子医院","name_format":"贵阳现代女子医院","lat":26.582901,"lng":106.704687,"address":"瑞金北路1号(紫林庵新华书店旁)","telephone":"0851-88133999#4001010373#13618585985","adcode":"520103","province":"贵州省","city":"贵阳市","district":"云岩区","key_person":"?","company":"?"},{"name":"贵阳贵州退休医师医院","name_format":"贵州退休医师医院","lat":26.564304,"lng":106.713203,"address":"兴关路48号","telephone":"0851-85563366#0851-85568900#18786007151","adcode":"520102","province":"贵州省","city":"贵阳市","district":"南明区","key_person":"?","company":"?"},{"name":"赣州现代泌尿专科医院","name_format":"赣州现代泌尿专科医院","lat":25.821414,"lng":114.962698,"address":"站前大道(火车站北侧20米)","telephone":"0797-8189595#0797-8183588","adcode":"360702","province":"江西省","city":"赣州市","district":"章贡区","key_person":"?","company":"?"},{"name":"运城禹都人民医院","name_format":"禹都人民医院","lat":35.035861,"lng":111.015119,"address":"槐东路68号","telephone":"0359-2094999#0359-2087999","adcode":"140802","province":"山西省","city":"运城市","district":"盐湖区","key_person":"?","company":"?"},{"name":"遵义遵义女子医院","name_format":"遵义旭隆宾馆","lat":27.720278,"lng":106.941778,"address":"路女子医院对面上行二十米","telephone":"?","adcode":"520303","province":"贵州省","city":"遵义市","district":"汇川区","key_person":"?","company":"?"},{"name":"邯郸仁爱妇科医院","name_format":"馅饼周中式快餐(魏县店)","lat":36.358872,"lng":114.942503,"address":"魏城镇魏州东路191号","telephone":"?","adcode":"130434","province":"河北省","city":"邯郸市","district":"魏县","key_person":"?","company":"?"},{"name":"郑州河南省军区医院","name_format":"河南省军区医院","lat":34.76561,"lng":113.673611,"address":"金水路18号","telephone":"0371-81670469#0371-81671400","adcode":"410105","province":"河南省","city":"郑州市","district":"金水区","key_person":"?","company":"?"},{"name":"郑州华山医院","name_format":"华山医院(陇海西路)","lat":34.737011,"lng":113.600141,"address":"陇海西路180号","telephone":"0371-67666999#0371-67681730","adcode":"410102","province":"河南省","city":"郑州市","district":"中原区","key_person":"?","company":"?"},{"name":"郑州集美整形美容医院","name_format":"郑州集美美容医院","lat":34.749942,"lng":113.676514,"address":"西大街238号","telephone":"0371-60907777#13676929687","adcode":"410104","province":"河南省","city":"郑州市","district":"管城回族区","key_person":"?","company":"?"},{"name":"郑州华夏白癜风医院","name_format":"郑州华夏中医白癜风医院","lat":34.716385,"lng":113.68465,"address":"紫荆山路与航海路交叉口向南300米路东","telephone":"0371-60226000#0371-66912345#13633821409","adcode":"410104","province":"河南省","city":"郑州市","district":"管城回族区","key_person":"?","company":"?"},{"name":"郑州河南中都皮肤病医院","name_format":"河南中都中西医结合皮肤病医院","lat":34.749412,"lng":113.740338,"address":"商都路18号","telephone":"0371-60309999#0371-55208989#4000313900","adcode":"410105","province":"河南省","city":"郑州市","district":"金水区","key_person":"?","company":"?"},{"name":"重庆涪陵博生和美妇产医院","name_format":"涪陵和美妇产医院","lat":29.710628,"lng":107.396231,"address":"滨江路锦天名都外滩1号","telephone":"023-62501542#023-72272060","adcode":"500102","province":"重庆市","city":"重庆市","district":"涪陵区","key_person":"?","company":"?"},{"name":"重庆安琪儿妇产医院","name_format":"重庆安琪儿妇产医院","lat":29.575503,"lng":106.498034,"address":"嘉鸿大道308号(大庆村立交旁)","telephone":"023-67113333","adcode":"500112","province":"重庆市","city":"重庆市","district":"渝北区","key_person":"?","company":"?"},{"name":"重庆阳光医院","name_format":"重庆北大阳光医院","lat":29.581547,"lng":106.528798,"address":"建新北路34号附3号","telephone":"023-86071999#023-86073999","adcode":"500105","province":"重庆市","city":"重庆市","district":"江北区","key_person":"?","company":"?"},{"name":"重庆红十字会医院","name_format":"重庆市红十字会医院(江北人民医院)B区","lat":29.599507,"lng":106.570217,"address":"海尔路168号","telephone":"023-67990209#023-67990307","adcode":"500105","province":"重庆市","city":"重庆市","district":"江北区","key_person":"?","company":"?"},{"name":"重庆坤如玛丽医院","name_format":"重庆市交通行政执法总队(红锦大道)","lat":29.587845,"lng":106.525906,"address":"红锦大道21号","telephone":"?","adcode":"500112","province":"重庆市","city":"重庆市","district":"渝北区","key_person":"?","company":"?"},{"name":"重庆涪陵三峡医院","name_format":"涪陵三峡医院","lat":29.6944,"lng":107.400091,"address":"太极大道2号(四环路口)","telephone":"023-72243333#023-72225108","adcode":"500102","province":"重庆市","city":"重庆市","district":"涪陵区","key_person":"?","company":"?"},{"name":"重庆万州博生医院","name_format":"中共博生和美妇产医院支部委员会","lat":30.8144,"lng":108.365329,"address":"白岩路末端中庆花园1号","telephone":"023-58561111","adcode":"500101","province":"重庆市","city":"重庆市","district":"万州区","key_person":"?","company":"?"},{"name":"重庆红楼医院","name_format":"重庆红楼医院","lat":29.53979,"lng":106.523732,"address":"长江二路39号附甲15号(近大黄路竞地花园)","telephone":"023-63638188#023-68716871#13788831002","adcode":"500103","province":"重庆市","city":"重庆市","district":"渝中区","key_person":"?","company":"?"},{"name":"重庆万州美妇产医院","name_format":"万州和美妇产医院","lat":30.814394,"lng":108.36532,"address":"白岩路末端中庆花园1号","telephone":"023-62501542#023-58723999#15223523981","adcode":"500101","province":"重庆市","city":"重庆市","district":"万州区","key_person":"?","company":"?"},{"name":"重庆解放军第324医院","name_format":"中国人民解放军第三二四医院","lat":29.574785,"lng":106.540317,"address":"建新东路29号(近十八中)","telephone":"023-68762120#023-68762100","adcode":"500105","province":"重庆市","city":"重庆市","district":"江北区","key_person":"?","company":"?"},{"name":"重庆华美美莱整形医院","name_format":"美莱美甲美睫会所","lat":29.602327,"lng":106.549546,"address":"丁香路6号附1号","telephone":"023-63053856#13983818455","adcode":"500112","province":"重庆市","city":"重庆市","district":"渝北区","key_person":"?","company":"?"},{"name":"重庆现代女子医院","name_format":"重庆现代女子医院","lat":29.529203,"lng":106.573004,"address":"南坪东路8号附5号","telephone":"023-62908322#023-62901999#023-62808918","adcode":"500108","province":"重庆市","city":"重庆市","district":"南岸区","key_person":"?","company":"?"},{"name":"重庆第三军医大学重庆新桥医院","name_format":"新桥医院","lat":29.522072,"lng":106.437774,"address":"新桥正街183号","telephone":"023-68755000#023-68755114#023-68755745","adcode":"500106","province":"重庆市","city":"重庆市","district":"沙坪坝区","key_person":"?","company":"?"},{"name":"重庆生殖健康医院","name_format":"重庆生殖健康医院","lat":29.580122,"lng":106.521235,"address":"渝澳大道读书梁一村9号","telephone":"023-89182998#023-89182806#18502326194","adcode":"500105","province":"重庆市","city":"重庆市","district":"江北区","key_person":"?","company":"?"},{"name":"重庆都市丽人医院","name_format":"重庆都市俪人医院","lat":29.583642,"lng":106.505648,"address":"松石北路58号","telephone":"023-67663999#023-67610300","adcode":"500112","province":"重庆市","city":"重庆市","district":"渝北区","key_person":"?","company":"?"},{"name":"重庆五洲女子医院","name_format":"重庆五洲女子医院","lat":29.527805,"lng":106.514094,"address":"谢家湾正街3号6幢","telephone":"023-68816687#023-68812999#13652358957","adcode":"500107","province":"重庆市","city":"重庆市","district":"九龙坡区","key_person":"?","company":"?"},{"name":"重庆爱德华医院","name_format":"爱德华医院(天陈路)","lat":29.552898,"lng":106.459144,"address":"天陈路27号","telephone":"023-65346666#023-65366999","adcode":"500106","province":"重庆市","city":"重庆市","district":"沙坪坝区","key_person":"?","company":"?"},{"name":"重庆万州阳光眼科医院","name_format":"万州阳光眼科医院","lat":30.75496,"lng":108.44595,"address":"天星路366号(三峡医专大门斜对面)","telephone":"023-85739982","adcode":"500101","province":"重庆市","city":"重庆市","district":"万州区","key_person":"?","company":"?"},{"name":"铜仁华夏医院","name_format":"华夏医院(东太大道)","lat":27.738105,"lng":109.194694,"address":"东太大道","telephone":"0856-5205555","adcode":"520602","province":"贵州省","city":"铜仁市","district":"碧江区","key_person":"?","company":"?"},{"name":"银川宁夏西京妇产医院","name_format":"西京妇产医院","lat":38.450421,"lng":106.282254,"address":"胜利南街256号","telephone":"0951-4072622#0951-4099999#4008120951","adcode":"640104","province":"宁夏回族自治区","city":"银川市","district":"兴庆区","key_person":"?","company":"?"},{"name":"长春阳光口腔医院","name_format":"阳光口腔","lat":43.861801,"lng":125.30443,"address":"延安大街99号盛世国际2层","telephone":"?","adcode":"220104","province":"吉林省","city":"长春市","district":"朝阳区","key_person":"?","company":"?"},{"name":"长春阳光女子医院","name_format":"长春阳光妇科医院","lat":43.886655,"lng":125.339892,"address":"大经路1318号(汉斯国际啤酒城对面)","telephone":"0431-88727120","adcode":"220102","province":"吉林省","city":"长春市","district":"南关区","key_person":"?","company":"?"},{"name":"长春长庚耳鼻喉医院","name_format":"长春长庚耳鼻喉医院","lat":43.889439,"lng":125.337319,"address":"大经路988号","telephone":"0431-87660123#0431-88753333","adcode":"220102","province":"吉林省","city":"长春市","district":"南关区","key_person":"?","company":"?"},{"name":"长春吉林总队医院","name_format":"武警医院(公交站)","lat":43.937103,"lng":125.296387,"address":"275路;302路","telephone":"?","adcode":"220103","province":"吉林省","city":"长春市","district":"宽城区","key_person":"?","company":"?"},{"name":"长春同济医院","name_format":"长春同济医院(康平街)","lat":43.894454,"lng":125.312512,"address":"康平街477号","telephone":"0431-88599120#0431-85914788","adcode":"220104","province":"吉林省","city":"长春市","district":"朝阳区","key_person":"?","company":"?"},{"name":"长沙现代女子医院","name_format":"长沙现代妇科医院(天洋大酒店东北)","lat":28.167773,"lng":112.99904,"address":"劳动中路59号","telephone":"0731-88688855#0731-85555529","adcode":"430111","province":"湖南省","city":"长沙市","district":"雨花区","key_person":"?","company":"?"},{"name":"长沙恒生手外科医院","name_format":"长沙恒生手外科医院","lat":28.136668,"lng":113.00712,"address":"香樟路229号","telephone":"0731-88827120#0731-84478888#4006666120","adcode":"430111","province":"湖南省","city":"长沙市","district":"雨花区","key_person":"?","company":"?"},{"name":"长沙丽人妇产医院","name_format":"长沙丽人妇产医院","lat":28.185438,"lng":113.006202,"address":"人民中路499号(家润多朝阳店对面)","telephone":"0731-88182688","adcode":"430102","province":"湖南省","city":"长沙市","district":"芙蓉区","key_person":"?","company":"?"},{"name":"长沙博大泌尿专科医院","name_format":"长沙博大泌尿专科医院","lat":28.181547,"lng":112.996813,"address":"韶山北路288号","telephone":"0731-88837120#0731-88778877","adcode":"430111","province":"湖南省","city":"长沙市","district":"雨花区","key_person":"?","company":"?"},{"name":"长沙仁爱医院","name_format":"长沙仁爱妇产医院","lat":28.214383,"lng":112.979512,"address":"湘雅路212号(凯达园1层)","telephone":"0731-84812888#0731-84812666","adcode":"430105","province":"湖南省","city":"长沙市","district":"开福区","key_person":"?","company":"?"},{"name":"长沙阳光医院","name_format":"长沙阳光医院","lat":28.183274,"lng":112.978046,"address":"城南西路155号","telephone":"0731-85828388#0731-85813999","adcode":"430103","province":"湖南省","city":"长沙市","district":"天心区","key_person":"?","company":"?"},{"name":"长沙武警湖南省总队医院","name_format":"武警湖南省总队医院","lat":28.19951,"lng":112.94926,"address":"枫林一路222号","telephone":"0731-88639199#4000991366","adcode":"430104","province":"湖南省","city":"长沙市","district":"岳麓区","key_person":"?","company":"?"},{"name":"长沙南方骨外科医院","name_format":"长沙瑞华医院","lat":28.148453,"lng":112.910925,"address":"含浦科技园长沙南方职业学院","telephone":"?","adcode":"430112","province":"湖南省","city":"长沙市","district":"望城区","key_person":"?","company":"?"},{"name":"长沙华夏医院","name_format":"华夏医院","lat":28.230824,"lng":113.080099,"address":"星沙镇北斗路16号(星沙汽车站斜对面)","telephone":"?","adcode":"430121","province":"湖南省","city":"长沙市","district":"长沙县","key_person":"?","company":"?"},{"name":"长治女子医院","name_format":"长治女子医院","lat":36.193101,"lng":113.100457,"address":"城西路258号","telephone":"0355-3786666#0355-3521972","adcode":"140402","province":"山西省","city":"长治市","district":"城区","key_person":"?","company":"?"},{"name":"雅安解放军第三十七医院","name_format":"中国人民解放军第三十七医院","lat":29.990287,"lng":103.018638,"address":"雅洲大道18号","telephone":"0835-2823085","adcode":"511802","province":"四川省","city":"雅安市","district":"雨城区","key_person":"?","company":"?"},{"name":"青岛山东青岛曙光医院","name_format":"青岛曙光医院","lat":36.083585,"lng":120.410743,"address":"银川西路9号","telephone":"0532-82652555#0532-85732222","adcode":"370202","province":"山东省","city":"青岛市","district":"市南区","key_person":"?","company":"?"},{"name":"青岛长征院","name_format":"长征医院","lat":36.090322,"lng":120.346631,"address":"华阳路36号甲","telephone":"0532-88994428#0532-83711000","adcode":"370203","province":"山东省","city":"青岛市","district":"市北区","key_person":"?","company":"?"},{"name":"青岛新阳光医院","name_format":"青岛新阳光妇产医院","lat":36.154414,"lng":120.417138,"address":"书院路115号","telephone":"0532-68696968#0532-87061886","adcode":"370213","province":"山东省","city":"青岛市","district":"李沧区","key_person":"?","company":"?"},{"name":"青岛集美整形美容医院","name_format":"集美社·形象设计","lat":36.060947,"lng":120.393673,"address":"澳门路86号百丽广场西区3楼-320","telephone":"0532-66061689#0532-83821021","adcode":"370202","province":"山东省","city":"青岛市","district":"市南区","key_person":"?","company":"?"},{"name":"青岛玛丽妇产医院","name_format":"青岛坤如玛丽妇产医院","lat":36.087319,"lng":120.376205,"address":"延吉路108号","telephone":"0532-85812233#0532-85835666#13969625330","adcode":"370203","province":"山东省","city":"青岛市","district":"市北区","key_person":"?","company":"?"},{"name":"青岛妇婴医院","name_format":"青岛妇婴医院","lat":36.064885,"lng":120.319096,"address":"中山路19号","telephone":"0532-58870036#0532-86067599","adcode":"370202","province":"山东省","city":"青岛市","district":"市南区","key_person":"?","company":"?"},{"name":"黄冈泌尿专科医院","name_format":"黄冈名仕医院停车场","lat":30.443519,"lng":114.871269,"address":"八一路附近","telephone":"?","adcode":"421102","province":"湖北省","city":"黄冈市","district":"黄州区","key_person":"?","company":"?"},{"name":"龙岩阳光医院","name_format":"龙岩新阳光医院","lat":25.086636,"lng":117.026743,"address":"西安南路苏溪农贸市场A座","telephone":"0597-2555555","adcode":"350802","province":"福建省","city":"龙岩市","district":"新罗区","key_person":"?","company":"?"},{"name":"龙岩女子医院","name_format":"龙岩女子医院","lat":25.068911,"lng":117.027626,"address":"曹溪北路西50米","telephone":"0597-2966666","adcode":"350802","province":"福建省","city":"龙岩市","district":"新罗区","key_person":"?","company":"?"}]
